{"type": "FeatureCollection","features": [{"type": "Feature","style": {"marker-color": "#a52222","marker-size": "small","marker-symbol": "star"},"properties": {"name": "cathedral of santo domingo de la calzada","total": "192","info": "title: Santo Domingo de la Calzada - url: https://farm8.staticflickr.com/7170/6515798013_bff5cba5fa.jpg - best tag: cathedral of santo domingo de la calzada - latitude: 42.440716 - longitude: -2.954192"},"geometry": {"type": "Point","coordinates":[-2.954192,42.440716]}},{"type": "Feature","style": {"marker-color": "#a52222","marker-size": "small","marker-symbol": "star"},"properties": {"name": "cathedral of santo domingo de la calzada","total": "192","info": "title: Santo Domingo de la Calzada - url: https://farm6.staticflickr.com/5616/15083930114_35deee7fe3.jpg - best tag: cathedral of santo domingo de la calzada - latitude: 42.440355 - longitude: -2.954699"},"geometry": {"type": "Point","coordinates":[-2.954699,42.440355]}},{"type": "Feature","style": {"marker-color": "#a52222","marker-size": "small","marker-symbol": "star"},"properties": {"name": "cathedral of santo domingo de la calzada","total": "192","info": "title: Santo Domingo de la Calzada - url: https://farm4.staticflickr.com/3867/15180432229_b7799d1886.jpg - best tag: cathedral of santo domingo de la calzada - latitude: 42.441028 - longitude: -2.953991"},"geometry": {"type": "Point","coordinates":[-2.953991,42.441028]}},{"type": "Feature","style": {"marker-color": "#a52222","marker-size": "small","marker-symbol": "star"},"properties": {"name": "cathedral of santo domingo de la calzada","total": "192","info": "title: Santo Domingo de la Calzada - url: https://farm8.staticflickr.com/7342/9618535386_fedd36d58a.jpg - best tag: cathedral of santo domingo de la calzada - latitude: 42.439891 - longitude: -2.952659"},"geometry": {"type": "Point","coordinates":[-2.952659,42.439891]}},{"type": "Feature","style": {"marker-color": "#a52222","marker-size": "small","marker-symbol": "star"},"properties": {"name": "cathedral of santo domingo de la calzada","total": "192","info": "title: Santo Domingo de la Calzada - url: https://farm4.staticflickr.com/3780/13583738494_7c1dc1a5a9.jpg - best tag: cathedral of santo domingo de la calzada - latitude: 42.441388 - longitude: -2.953181"},"geometry": {"type": "Point","coordinates":[-2.953181,42.441388]}},{"type": "Feature","style": {"marker-color": "#a52222","marker-size": "small","marker-symbol": "star"},"properties": {"name": "cathedral of santo domingo de la calzada","total": "192","info": "title: Santo Domingo de la Calzada - url: https://farm5.staticflickr.com/4033/4690581275_1fa0f6770e.jpg - best tag: cathedral of santo domingo de la calzada - latitude: 42.440426 - longitude: -2.952103"},"geometry": {"type": "Point","coordinates":[-2.952103,42.440426]}},{"type": "Feature","style": {"marker-color": "#a52222","marker-size": "small","marker-symbol": "star"},"properties": {"name": "cathedral of santo domingo de la calzada","total": "192","info": "title: Santo Domingo de la Calzada - url: https://farm7.staticflickr.com/6194/6132769556_53cc160e98.jpg - best tag: cathedral of santo domingo de la calzada - latitude: 42.440738 - longitude: -2.953785"},"geometry": {"type": "Point","coordinates":[-2.953785,42.440738]}},{"type": "Feature","style": {"marker-color": "#a52222","marker-size": "small","marker-symbol": "star"},"properties": {"name": "cathedral of santo domingo de la calzada","total": "192","info": "title: Santo Domingo de la Calzada - url: https://farm8.staticflickr.com/7472/15468258208_da4a84f5ed.jpg - best tag: cathedral of santo domingo de la calzada - latitude: 42.441020 - longitude: -2.953348"},"geometry": {"type": "Point","coordinates":[-2.953348,42.441020]}},{"type": "Feature","style": {"marker-color": "#a52222","marker-size": "small","marker-symbol": "star"},"properties": {"name": "cathedral of santo domingo de la calzada","total": "192","info": "title: Santo Domingo de la Calzada - url: https://farm8.staticflickr.com/7458/12322721773_aa35f1ef85.jpg - best tag: cathedral of santo domingo de la calzada - latitude: 42.441906 - longitude: -2.952983"},"geometry": {"type": "Point","coordinates":[-2.952983,42.441906]}},{"type": "Feature","style": {"marker-color": "#a52222","marker-size": "small","marker-symbol": "star"},"properties": {"name": "cathedral of santo domingo de la calzada","total": "192","info": "title: Santo Domingo de la Calzada - url: https://farm1.staticflickr.com/429/18684783384_7cc361bea9.jpg - best tag: cathedral of santo domingo de la calzada - latitude: 42.441107 - longitude: -2.953702"},"geometry": {"type": "Point","coordinates":[-2.953702,42.441107]}},{"type": "Feature","style": {"marker-color": "#a52222","marker-size": "small","marker-symbol": "star"},"properties": {"name": "cathedral of santo domingo de la calzada","total": "192","info": "title: Santo Domingo de la Calzada - url: https://farm9.staticflickr.com/8312/7991891760_80e935bd07.jpg - best tag: cathedral of santo domingo de la calzada - latitude: 42.440947 - longitude: -2.953556"},"geometry": {"type": "Point","coordinates":[-2.953556,42.440947]}},{"type": "Feature","style": {"marker-color": "#a52222","marker-size": "small","marker-symbol": "star"},"properties": {"name": "cathedral of santo domingo de la calzada","total": "192","info": "title: Santo Domingo de la Calzada - url: https://farm6.staticflickr.com/5737/21062501626_b741063d80.jpg - best tag: cathedral of santo domingo de la calzada - latitude: 42.441012 - longitude: -2.953691"},"geometry": {"type": "Point","coordinates":[-2.953691,42.441012]}},{"type": "Feature","style": {"marker-color": "#a52222","marker-size": "small","marker-symbol": "star"},"properties": {"name": "cathedral of santo domingo de la calzada","total": "192","info": "title: Santo Domingo de la Calzada - url: https://farm8.staticflickr.com/7607/16756904526_467b71f398.jpg - best tag: cathedral of santo domingo de la calzada - latitude: 42.440211 - longitude: -2.951889"},"geometry": {"type": "Point","coordinates":[-2.951889,42.440211]}},{"type": "Feature","style": {"marker-color": "#a52222","marker-size": "small","marker-symbol": "star"},"properties": {"name": "cathedral of santo domingo de la calzada","total": "192","info": "title: Santo Domingo de la Calzada - url: https://farm4.staticflickr.com/3771/9323089140_885b2c6744.jpg - best tag: cathedral of santo domingo de la calzada - latitude: 42.441095 - longitude: -2.953620"},"geometry": {"type": "Point","coordinates":[-2.953620,42.441095]}},{"type": "Feature","style": {"marker-color": "#a52222","marker-size": "small","marker-symbol": "star"},"properties": {"name": "cathedral of santo domingo de la calzada","total": "192","info": "title: Santo Domingo de la Calzada - url: https://farm1.staticflickr.com/399/19307292935_94c9c747fc.jpg - best tag: cathedral of santo domingo de la calzada - latitude: 42.441107 - longitude: -2.953702"},"geometry": {"type": "Point","coordinates":[-2.953702,42.441107]}},{"type": "Feature","style": {"marker-color": "#a52222","marker-size": "small","marker-symbol": "star"},"properties": {"name": "cathedral of santo domingo de la calzada","total": "192","info": "title: Santo Domingo de la Calzada - url: https://farm1.staticflickr.com/527/19382277053_8a34750e46.jpg - best tag: cathedral of santo domingo de la calzada - latitude: 42.441526 - longitude: -2.954163"},"geometry": {"type": "Point","coordinates":[-2.954163,42.441526]}},{"type": "Feature","style": {"marker-color": "#a52222","marker-size": "small","marker-symbol": "star"},"properties": {"name": "cathedral of santo domingo de la calzada","total": "192","info": "title: Santo Domingo de la Calzada - url: https://farm8.staticflickr.com/7651/16896540101_065b9be182.jpg - best tag: cathedral of santo domingo de la calzada - latitude: 42.440972 - longitude: -2.953723"},"geometry": {"type": "Point","coordinates":[-2.953723,42.440972]}},{"type": "Feature","style": {"marker-color": "#a52222","marker-size": "small","marker-symbol": "star"},"properties": {"name": "cathedral of santo domingo de la calzada","total": "192","info": "title: Santo Domingo de la Calzada - url: https://farm4.staticflickr.com/3789/9618526608_4b795a45d5.jpg - best tag: cathedral of santo domingo de la calzada - latitude: 42.440688 - longitude: -2.953789"},"geometry": {"type": "Point","coordinates":[-2.953789,42.440688]}},{"type": "Feature","style": {"marker-color": "#a52222","marker-size": "small","marker-symbol": "star"},"properties": {"name": "cathedral of santo domingo de la calzada","total": "192","info": "title: Santo Domingo de la Calzada - url: https://farm7.staticflickr.com/6088/6159012408_c3e1cdfd7d.jpg - best tag: cathedral of santo domingo de la calzada - latitude: 42.440716 - longitude: -2.953730"},"geometry": {"type": "Point","coordinates":[-2.953730,42.440716]}},{"type": "Feature","style": {"marker-color": "#a52222","marker-size": "small","marker-symbol": "star"},"properties": {"name": "cathedral of santo domingo de la calzada","total": "192","info": "title: Santo Domingo de la Calzada - url: https://farm2.staticflickr.com/1274/4666625289_fec9fc3a90.jpg - best tag: cathedral of santo domingo de la calzada - latitude: 42.441146 - longitude: -2.953691"},"geometry": {"type": "Point","coordinates":[-2.953691,42.441146]}},{"type": "Feature","style": {"marker-color": "#a52222","marker-size": "small","marker-symbol": "star"},"properties": {"name": "cathedral of santo domingo de la calzada","total": "192","info": "title: Santo Domingo de la Calzada - url: https://farm7.staticflickr.com/6169/6133548884_0d7a4c427b.jpg - best tag: cathedral of santo domingo de la calzada - latitude: 42.440655 - longitude: -2.954109"},"geometry": {"type": "Point","coordinates":[-2.954109,42.440655]}},{"type": "Feature","style": {"marker-color": "#a52222","marker-size": "small","marker-symbol": "star"},"properties": {"name": "cathedral of santo domingo de la calzada","total": "192","info": "title: Santo Domingo de la Calzada - url: https://farm8.staticflickr.com/7092/7244191622_3c1b546feb.jpg - best tag: cathedral of santo domingo de la calzada - latitude: 42.440497 - longitude: -2.953283"},"geometry": {"type": "Point","coordinates":[-2.953283,42.440497]}},{"type": "Feature","style": {"marker-color": "#a52222","marker-size": "small","marker-symbol": "star"},"properties": {"name": "cathedral of santo domingo de la calzada","total": "192","info": "title: Santo Domingo de la Calzada - url: https://farm8.staticflickr.com/7562/15701933371_22f503b67a.jpg - best tag: cathedral of santo domingo de la calzada - latitude: 42.440355 - longitude: -2.954699"},"geometry": {"type": "Point","coordinates":[-2.954699,42.440355]}},{"type": "Feature","style": {"marker-color": "#a52222","marker-size": "small","marker-symbol": "star"},"properties": {"name": "cathedral of santo domingo de la calzada","total": "192","info": "title: Santo Domingo de la Calzada - url: https://farm9.staticflickr.com/8681/15810584377_1d866519eb.jpg - best tag: cathedral of santo domingo de la calzada - latitude: 42.441145 - longitude: -2.953649"},"geometry": {"type": "Point","coordinates":[-2.953649,42.441145]}},{"type": "Feature","style": {"marker-color": "#a52222","marker-size": "small","marker-symbol": "star"},"properties": {"name": "cathedral of santo domingo de la calzada","total": "192","info": "title: Santo Domingo de la Calzada - url: https://farm5.staticflickr.com/4039/4666603395_2790372bed.jpg - best tag: cathedral of santo domingo de la calzada - latitude: 42.441146 - longitude: -2.953691"},"geometry": {"type": "Point","coordinates":[-2.953691,42.441146]}},{"type": "Feature","style": {"marker-color": "#a52222","marker-size": "small","marker-symbol": "star"},"properties": {"name": "cathedral of santo domingo de la calzada","total": "192","info": "title: Santo Domingo de la Calzada - url: https://farm4.staticflickr.com/3839/15366884382_fb32934f32.jpg - best tag: cathedral of santo domingo de la calzada - latitude: 42.441028 - longitude: -2.953991"},"geometry": {"type": "Point","coordinates":[-2.953991,42.441028]}},{"type": "Feature","style": {"marker-color": "#a52222","marker-size": "small","marker-symbol": "star"},"properties": {"name": "cathedral of santo domingo de la calzada","total": "192","info": "title: Santo Domingo de la Calzada - url: https://farm8.staticflickr.com/7130/13583829285_6f29d82b69.jpg - best tag: cathedral of santo domingo de la calzada - latitude: 42.440997 - longitude: -2.954314"},"geometry": {"type": "Point","coordinates":[-2.954314,42.440997]}},{"type": "Feature","style": {"marker-color": "#a52222","marker-size": "small","marker-symbol": "star"},"properties": {"name": "cathedral of santo domingo de la calzada","total": "192","info": "title: Santo Domingo de la Calzada - url: https://farm4.staticflickr.com/3952/15432006949_7720b0cd52.jpg - best tag: cathedral of santo domingo de la calzada - latitude: 42.440863 - longitude: -2.953634"},"geometry": {"type": "Point","coordinates":[-2.953634,42.440863]}},{"type": "Feature","style": {"marker-color": "#a52222","marker-size": "small","marker-symbol": "star"},"properties": {"name": "cathedral of santo domingo de la calzada","total": "192","info": "title: Santo Domingo de la Calzada - url: https://farm8.staticflickr.com/7303/16423852036_fee06d5169.jpg - best tag: cathedral of santo domingo de la calzada - latitude: 42.441297 - longitude: -2.953337"},"geometry": {"type": "Point","coordinates":[-2.953337,42.441297]}},{"type": "Feature","style": {"marker-color": "#a52222","marker-size": "small","marker-symbol": "star"},"properties": {"name": "cathedral of santo domingo de la calzada","total": "192","info": "title: Santo Domingo de la Calzada - url: https://farm6.staticflickr.com/5334/9615255231_703e98c4e6.jpg - best tag: cathedral of santo domingo de la calzada - latitude: 42.440952 - longitude: -2.953531"},"geometry": {"type": "Point","coordinates":[-2.953531,42.440952]}},{"type": "Feature","style": {"marker-color": "#a52222","marker-size": "small","marker-symbol": "star"},"properties": {"name": "cathedral of santo domingo de la calzada","total": "192","info": "title: Santo Domingo de la Calzada - url: https://farm7.staticflickr.com/6047/6332848526_c44809e1d7.jpg - best tag: cathedral of santo domingo de la calzada - latitude: 42.440716 - longitude: -2.954192"},"geometry": {"type": "Point","coordinates":[-2.954192,42.440716]}},{"type": "Feature","style": {"marker-color": "#a52222","marker-size": "small","marker-symbol": "star"},"properties": {"name": "cathedral of santo domingo de la calzada","total": "192","info": "title: Santo Domingo de la Calzada - url: https://farm4.staticflickr.com/3706/13583284143_16f7071c01.jpg - best tag: cathedral of santo domingo de la calzada - latitude: 42.441388 - longitude: -2.953181"},"geometry": {"type": "Point","coordinates":[-2.953181,42.441388]}},{"type": "Feature","style": {"marker-color": "#a52222","marker-size": "small","marker-symbol": "star"},"properties": {"name": "cathedral of santo domingo de la calzada","total": "192","info": "title: Santo Domingo de la Calzada - url: https://farm3.staticflickr.com/2858/9516607705_bf21e3a4f8.jpg - best tag: cathedral of santo domingo de la calzada - latitude: 42.440844 - longitude: -2.953164"},"geometry": {"type": "Point","coordinates":[-2.953164,42.440844]}},{"type": "Feature","style": {"marker-color": "#a52222","marker-size": "small","marker-symbol": "star"},"properties": {"name": "cathedral of santo domingo de la calzada","total": "192","info": "title: Santo Domingo de la Calzada - url: https://farm5.staticflickr.com/4032/4690602397_ebd07d1800.jpg - best tag: cathedral of santo domingo de la calzada - latitude: 42.440426 - longitude: -2.952103"},"geometry": {"type": "Point","coordinates":[-2.952103,42.440426]}},{"type": "Feature","style": {"marker-color": "#a52222","marker-size": "small","marker-symbol": "star"},"properties": {"name": "cathedral of santo domingo de la calzada","total": "192","info": "title: Santo Domingo de la Calzada - url: https://farm8.staticflickr.com/7548/15433447284_cd75ab02b4.jpg - best tag: cathedral of santo domingo de la calzada - latitude: 42.441301 - longitude: -2.953812"},"geometry": {"type": "Point","coordinates":[-2.953812,42.441301]}},{"type": "Feature","style": {"marker-color": "#a52222","marker-size": "small","marker-symbol": "star"},"properties": {"name": "cathedral of santo domingo de la calzada","total": "192","info": "title: Santo Domingo de la Calzada - url: https://farm8.staticflickr.com/7494/15387837933_7c3617b1db.jpg - best tag: cathedral of santo domingo de la calzada - latitude: 42.441145 - longitude: -2.953649"},"geometry": {"type": "Point","coordinates":[-2.953649,42.441145]}},{"type": "Feature","style": {"marker-color": "#a52222","marker-size": "small","marker-symbol": "star"},"properties": {"name": "cathedral of santo domingo de la calzada","total": "192","info": "title: Santo Domingo de la Calzada - url: https://farm6.staticflickr.com/5675/20846264301_366918095a.jpg - best tag: cathedral of santo domingo de la calzada - latitude: 42.440736 - longitude: -2.953859"},"geometry": {"type": "Point","coordinates":[-2.953859,42.440736]}},{"type": "Feature","style": {"marker-color": "#a52222","marker-size": "small","marker-symbol": "star"},"properties": {"name": "cathedral of santo domingo de la calzada","total": "192","info": "title: Santo Domingo de la Calzada - url: https://farm9.staticflickr.com/8527/8465273605_083f0bfe90.jpg - best tag: cathedral of santo domingo de la calzada - latitude: 42.441107 - longitude: -2.953895"},"geometry": {"type": "Point","coordinates":[-2.953895,42.441107]}},{"type": "Feature","style": {"marker-color": "#a52222","marker-size": "small","marker-symbol": "star"},"properties": {"name": "cathedral of santo domingo de la calzada","total": "192","info": "title: Santo Domingo de la Calzada - url: https://farm8.staticflickr.com/7771/18035846785_e29034ee44.jpg - best tag: cathedral of santo domingo de la calzada - latitude: 42.441867 - longitude: -2.952339"},"geometry": {"type": "Point","coordinates":[-2.952339,42.441867]}},{"type": "Feature","style": {"marker-color": "#a52222","marker-size": "small","marker-symbol": "star"},"properties": {"name": "cathedral of santo domingo de la calzada","total": "192","info": "title: Santo Domingo de la Calzada - url: https://farm7.staticflickr.com/6162/6158475153_bb6003ba0e.jpg - best tag: cathedral of santo domingo de la calzada - latitude: 42.440731 - longitude: -2.953791"},"geometry": {"type": "Point","coordinates":[-2.953791,42.440731]}},{"type": "Feature","style": {"marker-color": "#a52222","marker-size": "small","marker-symbol": "star"},"properties": {"name": "cathedral of santo domingo de la calzada","total": "192","info": "title: Santo Domingo de la Calzada - url: https://farm3.staticflickr.com/2884/9055120273_f6b20d8d77.jpg - best tag: cathedral of santo domingo de la calzada - latitude: 42.441724 - longitude: -2.953326"},"geometry": {"type": "Point","coordinates":[-2.953326,42.441724]}},{"type": "Feature","style": {"marker-color": "#a52222","marker-size": "small","marker-symbol": "star"},"properties": {"name": "cathedral of santo domingo de la calzada","total": "192","info": "title: Santo Domingo de la Calzada - url: https://farm6.staticflickr.com/5676/20216543124_63234d9edf.jpg - best tag: cathedral of santo domingo de la calzada - latitude: 42.440791 - longitude: -2.953845"},"geometry": {"type": "Point","coordinates":[-2.953845,42.440791]}},{"type": "Feature","style": {"marker-color": "#a52222","marker-size": "small","marker-symbol": "star"},"properties": {"name": "cathedral of santo domingo de la calzada","total": "192","info": "title: Santo Domingo de la Calzada - url: https://farm4.staticflickr.com/3786/9618539820_88381b1ab1.jpg - best tag: cathedral of santo domingo de la calzada - latitude: 42.441741 - longitude: -2.952881"},"geometry": {"type": "Point","coordinates":[-2.952881,42.441741]}},{"type": "Feature","style": {"marker-color": "#a52222","marker-size": "small","marker-symbol": "star"},"properties": {"name": "cathedral of santo domingo de la calzada","total": "192","info": "title: Santo Domingo de la Calzada - url: https://farm6.staticflickr.com/5670/20829587922_c765a9cb4c.jpg - best tag: cathedral of santo domingo de la calzada - latitude: 42.440791 - longitude: -2.953845"},"geometry": {"type": "Point","coordinates":[-2.953845,42.440791]}},{"type": "Feature","style": {"marker-color": "#a52222","marker-size": "small","marker-symbol": "star"},"properties": {"name": "cathedral of santo domingo de la calzada","total": "192","info": "title: Santo Domingo de la Calzada - url: https://farm4.staticflickr.com/3854/15344177536_30228e49b3.jpg - best tag: cathedral of santo domingo de la calzada - latitude: 42.441028 - longitude: -2.953991"},"geometry": {"type": "Point","coordinates":[-2.953991,42.441028]}},{"type": "Feature","style": {"marker-color": "#a52222","marker-size": "small","marker-symbol": "star"},"properties": {"name": "cathedral of santo domingo de la calzada","total": "192","info": "title: Santo Domingo de la Calzada - url: https://farm7.staticflickr.com/6080/6132748642_017f91058c.jpg - best tag: cathedral of santo domingo de la calzada - latitude: 42.441123 - longitude: -2.954221"},"geometry": {"type": "Point","coordinates":[-2.954221,42.441123]}},{"type": "Feature","style": {"marker-color": "#a52222","marker-size": "small","marker-symbol": "star"},"properties": {"name": "cathedral of santo domingo de la calzada","total": "192","info": "title: Santo Domingo de la Calzada - url: https://farm2.staticflickr.com/1011/5189712164_b4b65664f9.jpg - best tag: cathedral of santo domingo de la calzada - latitude: 42.440735 - longitude: -2.953519"},"geometry": {"type": "Point","coordinates":[-2.953519,42.440735]}},{"type": "Feature","style": {"marker-color": "#a52222","marker-size": "small","marker-symbol": "star"},"properties": {"name": "cathedral of santo domingo de la calzada","total": "192","info": "title: Santo Domingo de la Calzada - url: https://farm8.staticflickr.com/7487/15436074573_6d3ab79a77.jpg - best tag: cathedral of santo domingo de la calzada - latitude: 42.441301 - longitude: -2.953812"},"geometry": {"type": "Point","coordinates":[-2.953812,42.441301]}},{"type": "Feature","style": {"marker-color": "#a52222","marker-size": "small","marker-symbol": "star"},"properties": {"name": "cathedral of santo domingo de la calzada","total": "192","info": "title: Santo Domingo de la Calzada - url: https://farm4.staticflickr.com/3752/12304410504_bb1c6ce8d0.jpg - best tag: cathedral of santo domingo de la calzada - latitude: 42.441194 - longitude: -2.953863"},"geometry": {"type": "Point","coordinates":[-2.953863,42.441194]}},{"type": "Feature","style": {"marker-color": "#a52222","marker-size": "small","marker-symbol": "star"},"properties": {"name": "cathedral of santo domingo de la calzada","total": "192","info": "title: Santo Domingo de la Calzada - url: https://farm4.staticflickr.com/3846/14950046172_4c1d671404.jpg - best tag: cathedral of santo domingo de la calzada - latitude: 42.440788 - longitude: -2.953739"},"geometry": {"type": "Point","coordinates":[-2.953739,42.440788]}},{"type": "Feature","style": {"marker-color": "#a52222","marker-size": "small","marker-symbol": "star"},"properties": {"name": "cathedral of santo domingo de la calzada","total": "192","info": "title: Santo Domingo de la Calzada - url: https://farm8.staticflickr.com/7321/10153235196_012a0c970e.jpg - best tag: cathedral of santo domingo de la calzada - latitude: 42.441226 - longitude: -2.953895"},"geometry": {"type": "Point","coordinates":[-2.953895,42.441226]}},{"type": "Feature","style": {"marker-color": "#a52222","marker-size": "small","marker-symbol": "star"},"properties": {"name": "cathedral of santo domingo de la calzada","total": "192","info": "title: Santo Domingo de la Calzada - url: https://farm3.staticflickr.com/2907/14380266193_918a2f6b4b.jpg - best tag: cathedral of santo domingo de la calzada - latitude: 42.427472 - longitude: -2.924230"},"geometry": {"type": "Point","coordinates":[-2.924230,42.427472]}},{"type": "Feature","style": {"marker-color": "#a52222","marker-size": "small","marker-symbol": "star"},"properties": {"name": "cathedral of santo domingo de la calzada","total": "192","info": "title: Santo Domingo de la Calzada - url: https://farm3.staticflickr.com/2884/9145051400_d940d0208c.jpg - best tag: cathedral of santo domingo de la calzada - latitude: 42.440997 - longitude: -2.954517"},"geometry": {"type": "Point","coordinates":[-2.954517,42.440997]}},{"type": "Feature","style": {"marker-color": "#a52222","marker-size": "small","marker-symbol": "star"},"properties": {"name": "cathedral of santo domingo de la calzada","total": "192","info": "title: Santo Domingo de la Calzada - url: https://farm9.staticflickr.com/8027/7582964816_9af208b302.jpg - best tag: cathedral of santo domingo de la calzada - latitude: 42.440687 - longitude: -2.954238"},"geometry": {"type": "Point","coordinates":[-2.954238,42.440687]}},{"type": "Feature","style": {"marker-color": "#a52222","marker-size": "small","marker-symbol": "star"},"properties": {"name": "cathedral of santo domingo de la calzada","total": "192","info": "title: Santo Domingo de la Calzada - url: https://farm7.staticflickr.com/6108/6328882802_85f152a667.jpg - best tag: cathedral of santo domingo de la calzada - latitude: 42.440741 - longitude: -2.953728"},"geometry": {"type": "Point","coordinates":[-2.953728,42.440741]}},{"type": "Feature","style": {"marker-color": "#a52222","marker-size": "small","marker-symbol": "star"},"properties": {"name": "cathedral of santo domingo de la calzada","total": "192","info": "title: Santo Domingo de la Calzada - url: https://farm3.staticflickr.com/2814/13584223414_8fddd9541e.jpg - best tag: cathedral of santo domingo de la calzada - latitude: 42.440997 - longitude: -2.954314"},"geometry": {"type": "Point","coordinates":[-2.954314,42.440997]}},{"type": "Feature","style": {"marker-color": "#a52222","marker-size": "small","marker-symbol": "star"},"properties": {"name": "cathedral of santo domingo de la calzada","total": "192","info": "title: Santo Domingo de la Calzada - url: https://farm7.staticflickr.com/6068/6132203267_a527207d58.jpg - best tag: cathedral of santo domingo de la calzada - latitude: 42.440716 - longitude: -2.953730"},"geometry": {"type": "Point","coordinates":[-2.953730,42.440716]}},{"type": "Feature","style": {"marker-color": "#a52222","marker-size": "small","marker-symbol": "star"},"properties": {"name": "cathedral of santo domingo de la calzada","total": "192","info": "title: Santo Domingo de la Calzada - url: https://farm3.staticflickr.com/2831/12303973025_3259f6b400.jpg - best tag: cathedral of santo domingo de la calzada - latitude: 42.441194 - longitude: -2.953863"},"geometry": {"type": "Point","coordinates":[-2.953863,42.441194]}},{"type": "Feature","style": {"marker-color": "#a52222","marker-size": "small","marker-symbol": "star"},"properties": {"name": "cathedral of santo domingo de la calzada","total": "192","info": "title: Santo Domingo de la Calzada - url: https://farm7.staticflickr.com/6228/6332098489_e2e9a61a44.jpg - best tag: cathedral of santo domingo de la calzada - latitude: 42.440716 - longitude: -2.954192"},"geometry": {"type": "Point","coordinates":[-2.954192,42.440716]}},{"type": "Feature","style": {"marker-color": "#a52222","marker-size": "small","marker-symbol": "star"},"properties": {"name": "cathedral of santo domingo de la calzada","total": "192","info": "title: Santo Domingo de la Calzada - url: https://farm9.staticflickr.com/8371/8465142733_a734854f56.jpg - best tag: cathedral of santo domingo de la calzada - latitude: 42.441107 - longitude: -2.953895"},"geometry": {"type": "Point","coordinates":[-2.953895,42.441107]}},{"type": "Feature","style": {"marker-color": "#a52222","marker-size": "small","marker-symbol": "star"},"properties": {"name": "cathedral of santo domingo de la calzada","total": "192","info": "title: Santo Domingo de la Calzada - url: https://farm1.staticflickr.com/555/19359250781_3e17e1a058.jpg - best tag: cathedral of santo domingo de la calzada - latitude: 42.441297 - longitude: -2.953337"},"geometry": {"type": "Point","coordinates":[-2.953337,42.441297]}},{"type": "Feature","style": {"marker-color": "#a52222","marker-size": "small","marker-symbol": "star"},"properties": {"name": "cathedral of santo domingo de la calzada","total": "192","info": "title: Santo Domingo de la Calzada - url: https://farm5.staticflickr.com/4111/5153794064_09f1407651.jpg - best tag: cathedral of santo domingo de la calzada - latitude: 42.439721 - longitude: -2.953755"},"geometry": {"type": "Point","coordinates":[-2.953755,42.439721]}},{"type": "Feature","style": {"marker-color": "#a52222","marker-size": "small","marker-symbol": "star"},"properties": {"name": "cathedral of santo domingo de la calzada","total": "192","info": "title: Santo Domingo de la Calzada - url: https://farm6.staticflickr.com/5094/5531770815_504ae9c911.jpg - best tag: cathedral of santo domingo de la calzada - latitude: 42.438510 - longitude: -2.954850"},"geometry": {"type": "Point","coordinates":[-2.954850,42.438510]}},{"type": "Feature","style": {"marker-color": "#a52222","marker-size": "small","marker-symbol": "star"},"properties": {"name": "cathedral of santo domingo de la calzada","total": "192","info": "title: Santo Domingo de la Calzada - url: https://farm4.staticflickr.com/3956/15083912434_f76ea72671.jpg - best tag: cathedral of santo domingo de la calzada - latitude: 42.440355 - longitude: -2.954699"},"geometry": {"type": "Point","coordinates":[-2.954699,42.440355]}},{"type": "Feature","style": {"marker-color": "#a52222","marker-size": "small","marker-symbol": "star"},"properties": {"name": "cathedral of santo domingo de la calzada","total": "192","info": "title: Santo Domingo de la Calzada - url: https://farm1.staticflickr.com/386/19307252745_4b70e4e0f9.jpg - best tag: cathedral of santo domingo de la calzada - latitude: 42.441107 - longitude: -2.953702"},"geometry": {"type": "Point","coordinates":[-2.953702,42.441107]}},{"type": "Feature","style": {"marker-color": "#a52222","marker-size": "small","marker-symbol": "star"},"properties": {"name": "cathedral of santo domingo de la calzada","total": "192","info": "title: Santo Domingo de la Calzada - url: https://farm6.staticflickr.com/5610/15518459318_85a2f0f7c9.jpg - best tag: cathedral of santo domingo de la calzada - latitude: 42.440355 - longitude: -2.954699"},"geometry": {"type": "Point","coordinates":[-2.954699,42.440355]}},{"type": "Feature","style": {"marker-color": "#a52222","marker-size": "small","marker-symbol": "star"},"properties": {"name": "cathedral of santo domingo de la calzada","total": "192","info": "title: Santo Domingo de la Calzada - url: https://farm6.staticflickr.com/5691/20839147825_94a0cb696b.jpg - best tag: cathedral of santo domingo de la calzada - latitude: 42.440983 - longitude: -2.953845"},"geometry": {"type": "Point","coordinates":[-2.953845,42.440983]}},{"type": "Feature","style": {"marker-color": "#a52222","marker-size": "small","marker-symbol": "star"},"properties": {"name": "cathedral of santo domingo de la calzada","total": "192","info": "title: Santo Domingo de la Calzada - url: https://farm3.staticflickr.com/2950/15180666247_964db1eab0.jpg - best tag: cathedral of santo domingo de la calzada - latitude: 42.441028 - longitude: -2.953991"},"geometry": {"type": "Point","coordinates":[-2.953991,42.441028]}},{"type": "Feature","style": {"marker-color": "#a52222","marker-size": "small","marker-symbol": "star"},"properties": {"name": "cathedral of santo domingo de la calzada","total": "192","info": "title: Santo Domingo de la Calzada - url: https://farm7.staticflickr.com/6199/6132767810_7d8dc27a83.jpg - best tag: cathedral of santo domingo de la calzada - latitude: 42.440735 - longitude: -2.953788"},"geometry": {"type": "Point","coordinates":[-2.953788,42.440735]}},{"type": "Feature","style": {"marker-color": "#a52222","marker-size": "small","marker-symbol": "star"},"properties": {"name": "cathedral of santo domingo de la calzada","total": "192","info": "title: Santo Domingo de la Calzada - url: https://farm5.staticflickr.com/4061/4690638069_772a024fb7.jpg - best tag: cathedral of santo domingo de la calzada - latitude: 42.440608 - longitude: -2.952940"},"geometry": {"type": "Point","coordinates":[-2.952940,42.440608]}},{"type": "Feature","style": {"marker-color": "#a52222","marker-size": "small","marker-symbol": "star"},"properties": {"name": "cathedral of santo domingo de la calzada","total": "192","info": "title: Santo Domingo de la Calzada - url: https://farm4.staticflickr.com/3945/15625810496_82869521d6.jpg - best tag: cathedral of santo domingo de la calzada - latitude: 42.440861 - longitude: -2.953712"},"geometry": {"type": "Point","coordinates":[-2.953712,42.440861]}},{"type": "Feature","style": {"marker-color": "#a52222","marker-size": "small","marker-symbol": "star"},"properties": {"name": "cathedral of santo domingo de la calzada","total": "192","info": "title: Santo Domingo de la Calzada - url: https://farm1.staticflickr.com/514/20008492771_42ff993707.jpg - best tag: cathedral of santo domingo de la calzada - latitude: 42.441526 - longitude: -2.954163"},"geometry": {"type": "Point","coordinates":[-2.954163,42.441526]}},{"type": "Feature","style": {"marker-color": "#a52222","marker-size": "small","marker-symbol": "star"},"properties": {"name": "cathedral of santo domingo de la calzada","total": "192","info": "title: Santo Domingo de la Calzada - url: https://farm4.staticflickr.com/3685/18684819264_10f95bd05f.jpg - best tag: cathedral of santo domingo de la calzada - latitude: 42.441107 - longitude: -2.953702"},"geometry": {"type": "Point","coordinates":[-2.953702,42.441107]}},{"type": "Feature","style": {"marker-color": "#a52222","marker-size": "small","marker-symbol": "star"},"properties": {"name": "cathedral of santo domingo de la calzada","total": "192","info": "title: Santo Domingo de la Calzada - url: https://farm7.staticflickr.com/6091/6388944653_926ce573f1.jpg - best tag: cathedral of santo domingo de la calzada - latitude: 42.441449 - longitude: -2.953223"},"geometry": {"type": "Point","coordinates":[-2.953223,42.441449]}},{"type": "Feature","style": {"marker-color": "#a52222","marker-size": "small","marker-symbol": "star"},"properties": {"name": "cathedral of santo domingo de la calzada","total": "192","info": "title: Santo Domingo de la Calzada - url: https://farm7.staticflickr.com/6193/6132232153_904e5c3893.jpg - best tag: cathedral of santo domingo de la calzada - latitude: 42.441003 - longitude: -2.953301"},"geometry": {"type": "Point","coordinates":[-2.953301,42.441003]}},{"type": "Feature","style": {"marker-color": "#a52222","marker-size": "small","marker-symbol": "star"},"properties": {"name": "cathedral of santo domingo de la calzada","total": "192","info": "title: Santo Domingo de la Calzada - url: https://farm1.staticflickr.com/712/21056232026_317eaa2e47.jpg - best tag: cathedral of santo domingo de la calzada - latitude: 42.441012 - longitude: -2.953691"},"geometry": {"type": "Point","coordinates":[-2.953691,42.441012]}},{"type": "Feature","style": {"marker-color": "#a52222","marker-size": "small","marker-symbol": "star"},"properties": {"name": "cathedral of santo domingo de la calzada","total": "192","info": "title: Santo Domingo de la Calzada - url: https://farm7.staticflickr.com/6209/6132810150_4133f029d9.jpg - best tag: cathedral of santo domingo de la calzada - latitude: 42.441046 - longitude: -2.953948"},"geometry": {"type": "Point","coordinates":[-2.953948,42.441046]}},{"type": "Feature","style": {"marker-color": "#a52222","marker-size": "small","marker-symbol": "star"},"properties": {"name": "cathedral of santo domingo de la calzada","total": "192","info": "title: Santo Domingo de la Calzada - url: https://farm1.staticflickr.com/651/21081520165_bbaabfd2d7.jpg - best tag: cathedral of santo domingo de la calzada - latitude: 42.441012 - longitude: -2.953691"},"geometry": {"type": "Point","coordinates":[-2.953691,42.441012]}},{"type": "Feature","style": {"marker-color": "#a52222","marker-size": "small","marker-symbol": "star"},"properties": {"name": "cathedral of santo domingo de la calzada","total": "192","info": "title: Santo Domingo de la Calzada - url: https://farm9.staticflickr.com/8238/8466362404_d23a0d9ab4.jpg - best tag: cathedral of santo domingo de la calzada - latitude: 42.441107 - longitude: -2.953895"},"geometry": {"type": "Point","coordinates":[-2.953895,42.441107]}},{"type": "Feature","style": {"marker-color": "#a52222","marker-size": "small","marker-symbol": "star"},"properties": {"name": "cathedral of santo domingo de la calzada","total": "192","info": "title: Santo Domingo de la Calzada - url: https://farm8.staticflickr.com/7366/11285815426_beb5410ee8.jpg - best tag: cathedral of santo domingo de la calzada - latitude: 42.441006 - longitude: -2.954085"},"geometry": {"type": "Point","coordinates":[-2.954085,42.441006]}},{"type": "Feature","style": {"marker-color": "#a52222","marker-size": "small","marker-symbol": "star"},"properties": {"name": "cathedral of santo domingo de la calzada","total": "192","info": "title: Santo Domingo de la Calzada - url: https://farm8.staticflickr.com/7129/6878199146_2e73fa4a3f.jpg - best tag: cathedral of santo domingo de la calzada - latitude: 42.441265 - longitude: -2.954989"},"geometry": {"type": "Point","coordinates":[-2.954989,42.441265]}},{"type": "Feature","style": {"marker-color": "#a52222","marker-size": "small","marker-symbol": "star"},"properties": {"name": "cathedral of santo domingo de la calzada","total": "192","info": "title: Santo Domingo de la Calzada - url: https://farm1.staticflickr.com/417/18190603828_5f6655492d.jpg - best tag: cathedral of santo domingo de la calzada - latitude: 42.440799 - longitude: -2.953612"},"geometry": {"type": "Point","coordinates":[-2.953612,42.440799]}},{"type": "Feature","style": {"marker-color": "#a52222","marker-size": "small","marker-symbol": "star"},"properties": {"name": "cathedral of santo domingo de la calzada","total": "192","info": "title: Santo Domingo de la Calzada - url: https://farm6.staticflickr.com/5604/15463541807_2ac621033e.jpg - best tag: cathedral of santo domingo de la calzada - latitude: 42.441020 - longitude: -2.953348"},"geometry": {"type": "Point","coordinates":[-2.953348,42.441020]}},{"type": "Feature","style": {"marker-color": "#a52222","marker-size": "small","marker-symbol": "star"},"properties": {"name": "cathedral of santo domingo de la calzada","total": "192","info": "title: Santo Domingo de la Calzada - url: https://farm1.staticflickr.com/586/20460687863_1fb1aa96b3.jpg - best tag: cathedral of santo domingo de la calzada - latitude: 42.441012 - longitude: -2.953691"},"geometry": {"type": "Point","coordinates":[-2.953691,42.441012]}},{"type": "Feature","style": {"marker-color": "#a52222","marker-size": "small","marker-symbol": "star"},"properties": {"name": "cathedral of santo domingo de la calzada","total": "192","info": "title: Santo Domingo de la Calzada - url: https://farm5.staticflickr.com/4066/4667216238_e60e6f01cd.jpg - best tag: cathedral of santo domingo de la calzada - latitude: 42.441146 - longitude: -2.953691"},"geometry": {"type": "Point","coordinates":[-2.953691,42.441146]}},{"type": "Feature","style": {"marker-color": "#a52222","marker-size": "small","marker-symbol": "star"},"properties": {"name": "cathedral of santo domingo de la calzada","total": "192","info": "title: Santo Domingo de la Calzada - url: https://farm6.staticflickr.com/5033/14457554043_42bdf0ca49.jpg - best tag: cathedral of santo domingo de la calzada - latitude: 42.441436 - longitude: -2.953283"},"geometry": {"type": "Point","coordinates":[-2.953283,42.441436]}},{"type": "Feature","style": {"marker-color": "#a52222","marker-size": "small","marker-symbol": "star"},"properties": {"name": "cathedral of santo domingo de la calzada","total": "192","info": "title: Santo Domingo de la Calzada - url: https://farm8.staticflickr.com/7293/12306843936_3672f319de.jpg - best tag: cathedral of santo domingo de la calzada - latitude: 42.441194 - longitude: -2.953863"},"geometry": {"type": "Point","coordinates":[-2.953863,42.441194]}},{"type": "Feature","style": {"marker-color": "#a52222","marker-size": "small","marker-symbol": "star"},"properties": {"name": "cathedral of santo domingo de la calzada","total": "192","info": "title: Santo Domingo de la Calzada - url: https://farm5.staticflickr.com/4035/4691230718_af8e59522a.jpg - best tag: cathedral of santo domingo de la calzada - latitude: 42.440426 - longitude: -2.952103"},"geometry": {"type": "Point","coordinates":[-2.952103,42.440426]}},{"type": "Feature","style": {"marker-color": "#a52222","marker-size": "small","marker-symbol": "star"},"properties": {"name": "cathedral of santo domingo de la calzada","total": "192","info": "title: Santo Domingo de la Calzada - url: https://farm4.staticflickr.com/3853/15180664687_1d0f36266b.jpg - best tag: cathedral of santo domingo de la calzada - latitude: 42.441028 - longitude: -2.953991"},"geometry": {"type": "Point","coordinates":[-2.953991,42.441028]}},{"type": "Feature","style": {"marker-color": "#a52222","marker-size": "small","marker-symbol": "star"},"properties": {"name": "cathedral of santo domingo de la calzada","total": "192","info": "title: Santo Domingo de la Calzada - url: https://farm9.staticflickr.com/8311/8018460334_15ff46983b.jpg - best tag: cathedral of santo domingo de la calzada - latitude: 42.440772 - longitude: -2.954442"},"geometry": {"type": "Point","coordinates":[-2.954442,42.440772]}},{"type": "Feature","style": {"marker-color": "#a52222","marker-size": "small","marker-symbol": "star"},"properties": {"name": "cathedral of santo domingo de la calzada","total": "192","info": "title: Santo Domingo de la Calzada - url: https://farm5.staticflickr.com/4077/4760822474_22167fb8a9.jpg - best tag: cathedral of santo domingo de la calzada - latitude: 42.440956 - longitude: -2.953868"},"geometry": {"type": "Point","coordinates":[-2.953868,42.440956]}},{"type": "Feature","style": {"marker-color": "#a52222","marker-size": "small","marker-symbol": "star"},"properties": {"name": "cathedral of santo domingo de la calzada","total": "192","info": "title: Santo Domingo de la Calzada - url: https://farm9.staticflickr.com/8150/7502952750_cc8a1b7d5a.jpg - best tag: cathedral of santo domingo de la calzada - latitude: 42.439468 - longitude: -2.954129"},"geometry": {"type": "Point","coordinates":[-2.954129,42.439468]}},{"type": "Feature","style": {"marker-color": "#a52222","marker-size": "small","marker-symbol": "star"},"properties": {"name": "cathedral of santo domingo de la calzada","total": "192","info": "title: Santo Domingo de la Calzada - url: https://farm9.staticflickr.com/8511/8465140641_99f11ecdc5.jpg - best tag: cathedral of santo domingo de la calzada - latitude: 42.441107 - longitude: -2.953895"},"geometry": {"type": "Point","coordinates":[-2.953895,42.441107]}},{"type": "Feature","style": {"marker-color": "#a52222","marker-size": "small","marker-symbol": "star"},"properties": {"name": "cathedral of santo domingo de la calzada","total": "192","info": "title: Santo Domingo de la Calzada - url: https://farm4.staticflickr.com/3811/10153193926_edcc98c212.jpg - best tag: cathedral of santo domingo de la calzada - latitude: 42.441511 - longitude: -2.953037"},"geometry": {"type": "Point","coordinates":[-2.953037,42.441511]}},{"type": "Feature","style": {"marker-color": "#a52222","marker-size": "small","marker-symbol": "star"},"properties": {"name": "cathedral of santo domingo de la calzada","total": "192","info": "title: Santo Domingo de la Calzada - url: https://farm9.staticflickr.com/8299/8011145275_ffecf291a1.jpg - best tag: cathedral of santo domingo de la calzada - latitude: 42.440667 - longitude: -2.953833"},"geometry": {"type": "Point","coordinates":[-2.953833,42.440667]}},{"type": "Feature","style": {"marker-color": "#a52222","marker-size": "small","marker-symbol": "star"},"properties": {"name": "cathedral of santo domingo de la calzada","total": "192","info": "title: Santo Domingo de la Calzada - url: https://farm5.staticflickr.com/4068/4666594299_e38038a081.jpg - best tag: cathedral of santo domingo de la calzada - latitude: 42.441146 - longitude: -2.953691"},"geometry": {"type": "Point","coordinates":[-2.953691,42.441146]}},{"type": "Feature","style": {"marker-color": "#a52222","marker-size": "small","marker-symbol": "star"},"properties": {"name": "cathedral of santo domingo de la calzada","total": "192","info": "title: Santo Domingo de la Calzada - url: https://farm4.staticflickr.com/3803/19561688826_bf2686ecb3.jpg - best tag: cathedral of santo domingo de la calzada - latitude: 42.440766 - longitude: -2.953970"},"geometry": {"type": "Point","coordinates":[-2.953970,42.440766]}},{"type": "Feature","style": {"marker-color": "#a52222","marker-size": "small","marker-symbol": "star"},"properties": {"name": "cathedral of santo domingo de la calzada","total": "192","info": "title: Santo Domingo de la Calzada - url: https://farm4.staticflickr.com/3896/15062833315_64a5d0cd82.jpg - best tag: cathedral of santo domingo de la calzada - latitude: 42.440956 - longitude: -2.953225"},"geometry": {"type": "Point","coordinates":[-2.953225,42.440956]}},{"type": "Feature","style": {"marker-color": "#a52222","marker-size": "small","marker-symbol": "star"},"properties": {"name": "cathedral of santo domingo de la calzada","total": "192","info": "title: Santo Domingo de la Calzada - url: https://farm3.staticflickr.com/2823/12323001574_205b19a6f6.jpg - best tag: cathedral of santo domingo de la calzada - latitude: 42.441906 - longitude: -2.952983"},"geometry": {"type": "Point","coordinates":[-2.952983,42.441906]}},{"type": "Feature","style": {"marker-color": "#a52222","marker-size": "small","marker-symbol": "star"},"properties": {"name": "cathedral of santo domingo de la calzada","total": "192","info": "title: Santo Domingo de la Calzada - url: https://farm9.staticflickr.com/8239/8466211870_7267be2617.jpg - best tag: cathedral of santo domingo de la calzada - latitude: 42.441107 - longitude: -2.953895"},"geometry": {"type": "Point","coordinates":[-2.953895,42.441107]}},{"type": "Feature","style": {"marker-color": "#a52222","marker-size": "small","marker-symbol": "star"},"properties": {"name": "cathedral of santo domingo de la calzada","total": "192","info": "title: Santo Domingo de la Calzada - url: https://farm4.staticflickr.com/3840/14651769817_a2bf7873e1.jpg - best tag: cathedral of santo domingo de la calzada - latitude: 42.441507 - longitude: -2.953873"},"geometry": {"type": "Point","coordinates":[-2.953873,42.441507]}},{"type": "Feature","style": {"marker-color": "#a52222","marker-size": "small","marker-symbol": "star"},"properties": {"name": "cathedral of santo domingo de la calzada","total": "192","info": "title: Santo Domingo de la Calzada - url: https://farm3.staticflickr.com/2850/9628077204_4d3592322e.jpg - best tag: cathedral of santo domingo de la calzada - latitude: 42.441075 - longitude: -2.953934"},"geometry": {"type": "Point","coordinates":[-2.953934,42.441075]}},{"type": "Feature","style": {"marker-color": "#a52222","marker-size": "small","marker-symbol": "star"},"properties": {"name": "cathedral of santo domingo de la calzada","total": "192","info": "title: Santo Domingo de la Calzada - url: https://farm9.staticflickr.com/8684/16896536461_6cf65a93a9.jpg - best tag: cathedral of santo domingo de la calzada - latitude: 42.440972 - longitude: -2.953723"},"geometry": {"type": "Point","coordinates":[-2.953723,42.440972]}},{"type": "Feature","style": {"marker-color": "#a52222","marker-size": "small","marker-symbol": "star"},"properties": {"name": "cathedral of santo domingo de la calzada","total": "192","info": "title: Santo Domingo de la Calzada - url: https://farm5.staticflickr.com/4126/5153190123_932270e076.jpg - best tag: cathedral of santo domingo de la calzada - latitude: 42.439721 - longitude: -2.953755"},"geometry": {"type": "Point","coordinates":[-2.953755,42.439721]}},{"type": "Feature","style": {"marker-color": "#a52222","marker-size": "small","marker-symbol": "star"},"properties": {"name": "cathedral of santo domingo de la calzada","total": "192","info": "title: Santo Domingo de la Calzada - url: https://farm8.staticflickr.com/7404/10153149084_672a1e3c6b.jpg - best tag: cathedral of santo domingo de la calzada - latitude: 42.441226 - longitude: -2.953895"},"geometry": {"type": "Point","coordinates":[-2.953895,42.441226]}},{"type": "Feature","style": {"marker-color": "#a52222","marker-size": "small","marker-symbol": "star"},"properties": {"name": "cathedral of santo domingo de la calzada","total": "192","info": "title: Santo Domingo de la Calzada - url: https://farm4.staticflickr.com/3803/10876946166_06fc1a7564.jpg - best tag: cathedral of santo domingo de la calzada - latitude: 42.441107 - longitude: -2.953734"},"geometry": {"type": "Point","coordinates":[-2.953734,42.441107]}},{"type": "Feature","style": {"marker-color": "#a52222","marker-size": "small","marker-symbol": "star"},"properties": {"name": "cathedral of santo domingo de la calzada","total": "192","info": "title: Santo Domingo de la Calzada - url: https://farm3.staticflickr.com/2877/9320296251_86ba5517ea.jpg - best tag: cathedral of santo domingo de la calzada - latitude: 42.441095 - longitude: -2.953620"},"geometry": {"type": "Point","coordinates":[-2.953620,42.441095]}},{"type": "Feature","style": {"marker-color": "#a52222","marker-size": "small","marker-symbol": "star"},"properties": {"name": "cathedral of santo domingo de la calzada","total": "192","info": "title: Santo Domingo de la Calzada - url: https://farm8.staticflickr.com/7076/13583703763_fb23e7856b.jpg - best tag: cathedral of santo domingo de la calzada - latitude: 42.441155 - longitude: -2.953659"},"geometry": {"type": "Point","coordinates":[-2.953659,42.441155]}},{"type": "Feature","style": {"marker-color": "#a52222","marker-size": "small","marker-symbol": "star"},"properties": {"name": "cathedral of santo domingo de la calzada","total": "192","info": "title: Santo Domingo de la Calzada - url: https://farm4.staticflickr.com/3843/15297017772_4c605d86cc.jpg - best tag: cathedral of santo domingo de la calzada - latitude: 42.441439 - longitude: -2.953315"},"geometry": {"type": "Point","coordinates":[-2.953315,42.441439]}},{"type": "Feature","style": {"marker-color": "#a52222","marker-size": "small","marker-symbol": "star"},"properties": {"name": "cathedral of santo domingo de la calzada","total": "192","info": "title: Santo Domingo de la Calzada - url: https://farm9.staticflickr.com/8029/7991600790_04d5927489.jpg - best tag: cathedral of santo domingo de la calzada - latitude: 42.440945 - longitude: -2.953570"},"geometry": {"type": "Point","coordinates":[-2.953570,42.440945]}},{"type": "Feature","style": {"marker-color": "#a52222","marker-size": "small","marker-symbol": "star"},"properties": {"name": "cathedral of santo domingo de la calzada","total": "192","info": "title: Santo Domingo de la Calzada - url: https://farm6.staticflickr.com/5749/20846260221_5bb897a49e.jpg - best tag: cathedral of santo domingo de la calzada - latitude: 42.441658 - longitude: -2.953162"},"geometry": {"type": "Point","coordinates":[-2.953162,42.441658]}},{"type": "Feature","style": {"marker-color": "#a52222","marker-size": "small","marker-symbol": "star"},"properties": {"name": "cathedral of santo domingo de la calzada","total": "192","info": "title: Santo Domingo de la Calzada - url: https://farm5.staticflickr.com/4035/4667247456_9447b8bd1e.jpg - best tag: cathedral of santo domingo de la calzada - latitude: 42.441146 - longitude: -2.953691"},"geometry": {"type": "Point","coordinates":[-2.953691,42.441146]}},{"type": "Feature","style": {"marker-color": "#a52222","marker-size": "small","marker-symbol": "star"},"properties": {"name": "cathedral of santo domingo de la calzada","total": "192","info": "title: Santo Domingo de la Calzada - url: https://farm4.staticflickr.com/3955/15519052280_df197626ec.jpg - best tag: cathedral of santo domingo de la calzada - latitude: 42.440355 - longitude: -2.954699"},"geometry": {"type": "Point","coordinates":[-2.954699,42.440355]}},{"type": "Feature","style": {"marker-color": "#a52222","marker-size": "small","marker-symbol": "star"},"properties": {"name": "cathedral of santo domingo de la calzada","total": "192","info": "title: Santo Domingo de la Calzada - url: https://farm9.staticflickr.com/8357/8421929861_9be3c091f2.jpg - best tag: cathedral of santo domingo de la calzada - latitude: 42.440999 - longitude: -2.954000"},"geometry": {"type": "Point","coordinates":[-2.954000,42.440999]}},{"type": "Feature","style": {"marker-color": "#a52222","marker-size": "small","marker-symbol": "star"},"properties": {"name": "cathedral of santo domingo de la calzada","total": "192","info": "title: Santo Domingo de la Calzada - url: https://farm4.staticflickr.com/3669/9057346166_3f3f252715.jpg - best tag: cathedral of santo domingo de la calzada - latitude: 42.440885 - longitude: -2.953863"},"geometry": {"type": "Point","coordinates":[-2.953863,42.440885]}},{"type": "Feature","style": {"marker-color": "#a52222","marker-size": "small","marker-symbol": "star"},"properties": {"name": "cathedral of santo domingo de la calzada","total": "192","info": "title: Santo Domingo de la Calzada - url: https://farm7.staticflickr.com/6230/6328129619_1cb83bd93f.jpg - best tag: cathedral of santo domingo de la calzada - latitude: 42.440861 - longitude: -2.953587"},"geometry": {"type": "Point","coordinates":[-2.953587,42.440861]}},{"type": "Feature","style": {"marker-color": "#a52222","marker-size": "small","marker-symbol": "star"},"properties": {"name": "cathedral of santo domingo de la calzada","total": "192","info": "title: Santo Domingo de la Calzada - url: https://farm4.staticflickr.com/3708/9057344050_e47ae204cb.jpg - best tag: cathedral of santo domingo de la calzada - latitude: 42.441724 - longitude: -2.953326"},"geometry": {"type": "Point","coordinates":[-2.953326,42.441724]}},{"type": "Feature","style": {"marker-color": "#a52222","marker-size": "small","marker-symbol": "star"},"properties": {"name": "cathedral of santo domingo de la calzada","total": "192","info": "title: Santo Domingo de la Calzada - url: https://farm7.staticflickr.com/6179/6132230233_5c63b3b891.jpg - best tag: cathedral of santo domingo de la calzada - latitude: 42.440978 - longitude: -2.953343"},"geometry": {"type": "Point","coordinates":[-2.953343,42.440978]}},{"type": "Feature","style": {"marker-color": "#a52222","marker-size": "small","marker-symbol": "star"},"properties": {"name": "cathedral of santo domingo de la calzada","total": "192","info": "title: Santo Domingo de la Calzada - url: https://farm1.staticflickr.com/576/20466253903_115aa661c3.jpg - best tag: cathedral of santo domingo de la calzada - latitude: 42.441012 - longitude: -2.953691"},"geometry": {"type": "Point","coordinates":[-2.953691,42.441012]}},{"type": "Feature","style": {"marker-color": "#a52222","marker-size": "small","marker-symbol": "star"},"properties": {"name": "cathedral of santo domingo de la calzada","total": "192","info": "title: Santo Domingo de la Calzada - url: https://farm8.staticflickr.com/7159/6812031617_5682e7af55.jpg - best tag: cathedral of santo domingo de la calzada - latitude: 42.440819 - longitude: -2.953648"},"geometry": {"type": "Point","coordinates":[-2.953648,42.440819]}},{"type": "Feature","style": {"marker-color": "#a52222","marker-size": "small","marker-symbol": "star"},"properties": {"name": "cathedral of santo domingo de la calzada","total": "192","info": "title: Santo Domingo de la Calzada - url: https://farm4.staticflickr.com/3866/15180496590_b21a197170.jpg - best tag: cathedral of santo domingo de la calzada - latitude: 42.441028 - longitude: -2.953991"},"geometry": {"type": "Point","coordinates":[-2.953991,42.441028]}},{"type": "Feature","style": {"marker-color": "#a52222","marker-size": "small","marker-symbol": "star"},"properties": {"name": "cathedral of santo domingo de la calzada","total": "192","info": "title: Santo Domingo de la Calzada - url: https://farm8.staticflickr.com/7514/15701950741_e017e6a54c.jpg - best tag: cathedral of santo domingo de la calzada - latitude: 42.440355 - longitude: -2.954699"},"geometry": {"type": "Point","coordinates":[-2.954699,42.440355]}},{"type": "Feature","style": {"marker-color": "#a52222","marker-size": "small","marker-symbol": "star"},"properties": {"name": "cathedral of santo domingo de la calzada","total": "192","info": "title: Santo Domingo de la Calzada - url: https://farm1.staticflickr.com/540/19380623294_50734336cb.jpg - best tag: cathedral of santo domingo de la calzada - latitude: 42.441526 - longitude: -2.954163"},"geometry": {"type": "Point","coordinates":[-2.954163,42.441526]}},{"type": "Feature","style": {"marker-color": "#a52222","marker-size": "small","marker-symbol": "star"},"properties": {"name": "cathedral of santo domingo de la calzada","total": "192","info": "title: Santo Domingo de la Calzada - url: https://farm8.staticflickr.com/7248/7006082251_3a521e7183.jpg - best tag: cathedral of santo domingo de la calzada - latitude: 42.440808 - longitude: -2.953647"},"geometry": {"type": "Point","coordinates":[-2.953647,42.440808]}},{"type": "Feature","style": {"marker-color": "#a52222","marker-size": "small","marker-symbol": "star"},"properties": {"name": "cathedral of santo domingo de la calzada","total": "192","info": "title: Santo Domingo de la Calzada - url: https://farm8.staticflickr.com/7121/13583487265_58026c8418.jpg - best tag: cathedral of santo domingo de la calzada - latitude: 42.441155 - longitude: -2.953659"},"geometry": {"type": "Point","coordinates":[-2.953659,42.441155]}},{"type": "Feature","style": {"marker-color": "#a52222","marker-size": "small","marker-symbol": "star"},"properties": {"name": "cathedral of santo domingo de la calzada","total": "192","info": "title: Santo Domingo de la Calzada - url: https://farm8.staticflickr.com/7042/13584022994_0213ebc6c4.jpg - best tag: cathedral of santo domingo de la calzada - latitude: 42.441155 - longitude: -2.953659"},"geometry": {"type": "Point","coordinates":[-2.953659,42.441155]}},{"type": "Feature","style": {"marker-color": "#a52222","marker-size": "small","marker-symbol": "star"},"properties": {"name": "cathedral of santo domingo de la calzada","total": "192","info": "title: Santo Domingo de la Calzada - url: https://farm7.staticflickr.com/6077/6132763982_487eaa5964.jpg - best tag: cathedral of santo domingo de la calzada - latitude: 42.440728 - longitude: -2.953793"},"geometry": {"type": "Point","coordinates":[-2.953793,42.440728]}},{"type": "Feature","style": {"marker-color": "#a52222","marker-size": "small","marker-symbol": "star"},"properties": {"name": "cathedral of santo domingo de la calzada","total": "192","info": "title: Santo Domingo de la Calzada - url: https://farm5.staticflickr.com/4114/4827563154_e95e36e7d5.jpg - best tag: cathedral of santo domingo de la calzada - latitude: 42.441922 - longitude: -2.955214"},"geometry": {"type": "Point","coordinates":[-2.955214,42.441922]}},{"type": "Feature","style": {"marker-color": "#a52222","marker-size": "small","marker-symbol": "star"},"properties": {"name": "cathedral of santo domingo de la calzada","total": "192","info": "title: Santo Domingo de la Calzada - url: https://farm4.staticflickr.com/3717/10153413613_713399da28.jpg - best tag: cathedral of santo domingo de la calzada - latitude: 42.441226 - longitude: -2.953895"},"geometry": {"type": "Point","coordinates":[-2.953895,42.441226]}},{"type": "Feature","style": {"marker-color": "#a52222","marker-size": "small","marker-symbol": "star"},"properties": {"name": "cathedral of santo domingo de la calzada","total": "192","info": "title: Santo Domingo de la Calzada - url: https://farm9.staticflickr.com/8632/15869731097_f25a1c7129.jpg - best tag: cathedral of santo domingo de la calzada - latitude: 42.440968 - longitude: -2.953222"},"geometry": {"type": "Point","coordinates":[-2.953222,42.440968]}},{"type": "Feature","style": {"marker-color": "#a52222","marker-size": "small","marker-symbol": "star"},"properties": {"name": "cathedral of santo domingo de la calzada","total": "192","info": "title: Santo Domingo de la Calzada - url: https://farm5.staticflickr.com/4070/4690643733_f6cf2eb0ff.jpg - best tag: cathedral of santo domingo de la calzada - latitude: 42.440608 - longitude: -2.952940"},"geometry": {"type": "Point","coordinates":[-2.952940,42.440608]}},{"type": "Feature","style": {"marker-color": "#a52222","marker-size": "small","marker-symbol": "star"},"properties": {"name": "cathedral of santo domingo de la calzada","total": "192","info": "title: Santo Domingo de la Calzada - url: https://farm9.staticflickr.com/8572/15781967777_31a45a2865.jpg - best tag: cathedral of santo domingo de la calzada - latitude: 42.440956 - longitude: -2.953225"},"geometry": {"type": "Point","coordinates":[-2.953225,42.440956]}},{"type": "Feature","style": {"marker-color": "#a52222","marker-size": "small","marker-symbol": "star"},"properties": {"name": "cathedral of santo domingo de la calzada","total": "192","info": "title: Santo Domingo de la Calzada - url: https://farm9.staticflickr.com/8046/8382639583_9566598bbc.jpg - best tag: cathedral of santo domingo de la calzada - latitude: 42.440783 - longitude: -2.953134"},"geometry": {"type": "Point","coordinates":[-2.953134,42.440783]}},{"type": "Feature","style": {"marker-color": "#a52222","marker-size": "small","marker-symbol": "star"},"properties": {"name": "cathedral of santo domingo de la calzada","total": "192","info": "title: Santo Domingo de la Calzada - url: https://farm8.staticflickr.com/7485/15517996859_4dcc3bd042.jpg - best tag: cathedral of santo domingo de la calzada - latitude: 42.440355 - longitude: -2.954699"},"geometry": {"type": "Point","coordinates":[-2.954699,42.440355]}},{"type": "Feature","style": {"marker-color": "#a52222","marker-size": "small","marker-symbol": "star"},"properties": {"name": "cathedral of santo domingo de la calzada","total": "192","info": "title: Santo Domingo de la Calzada - url: https://farm1.staticflickr.com/568/20216522734_e0feecff18.jpg - best tag: cathedral of santo domingo de la calzada - latitude: 42.440811 - longitude: -2.953567"},"geometry": {"type": "Point","coordinates":[-2.953567,42.440811]}},{"type": "Feature","style": {"marker-color": "#a52222","marker-size": "small","marker-symbol": "star"},"properties": {"name": "cathedral of santo domingo de la calzada","total": "192","info": "title: Santo Domingo de la Calzada - url: https://farm4.staticflickr.com/3874/15344182626_a153d5a4aa.jpg - best tag: cathedral of santo domingo de la calzada - latitude: 42.441028 - longitude: -2.953991"},"geometry": {"type": "Point","coordinates":[-2.953991,42.441028]}},{"type": "Feature","style": {"marker-color": "#a52222","marker-size": "small","marker-symbol": "star"},"properties": {"name": "cathedral of santo domingo de la calzada","total": "192","info": "title: Santo Domingo de la Calzada - url: https://farm5.staticflickr.com/4046/4690606269_6bfc2d0234.jpg - best tag: cathedral of santo domingo de la calzada - latitude: 42.440426 - longitude: -2.952103"},"geometry": {"type": "Point","coordinates":[-2.952103,42.440426]}},{"type": "Feature","style": {"marker-color": "#a52222","marker-size": "small","marker-symbol": "star"},"properties": {"name": "cathedral of santo domingo de la calzada","total": "192","info": "title: Santo Domingo de la Calzada - url: https://farm5.staticflickr.com/4142/4908998746_51db2a31eb.jpg - best tag: cathedral of santo domingo de la calzada - latitude: 42.440833 - longitude: -2.953833"},"geometry": {"type": "Point","coordinates":[-2.953833,42.440833]}},{"type": "Feature","style": {"marker-color": "#a52222","marker-size": "small","marker-symbol": "star"},"properties": {"name": "cathedral of santo domingo de la calzada","total": "192","info": "title: Santo Domingo de la Calzada - url: https://farm4.staticflickr.com/3291/4555616416_3f65b5942f.jpg - best tag: cathedral of santo domingo de la calzada - latitude: 42.441257 - longitude: -2.951781"},"geometry": {"type": "Point","coordinates":[-2.951781,42.441257]}},{"type": "Feature","style": {"marker-color": "#a52222","marker-size": "small","marker-symbol": "star"},"properties": {"name": "cathedral of santo domingo de la calzada","total": "192","info": "title: Santo Domingo de la Calzada - url: https://farm3.staticflickr.com/2836/9142843909_d265993b22.jpg - best tag: cathedral of santo domingo de la calzada - latitude: 42.446097 - longitude: -2.961081"},"geometry": {"type": "Point","coordinates":[-2.961081,42.446097]}},{"type": "Feature","style": {"marker-color": "#a52222","marker-size": "small","marker-symbol": "star"},"properties": {"name": "cathedral of santo domingo de la calzada","total": "192","info": "title: Santo Domingo de la Calzada - url: https://farm8.staticflickr.com/7447/11530647386_a79612eb74.jpg - best tag: cathedral of santo domingo de la calzada - latitude: 42.440791 - longitude: -2.954335"},"geometry": {"type": "Point","coordinates":[-2.954335,42.440791]}},{"type": "Feature","style": {"marker-color": "#a52222","marker-size": "small","marker-symbol": "star"},"properties": {"name": "cathedral of santo domingo de la calzada","total": "192","info": "title: Santo Domingo de la Calzada - url: https://farm6.staticflickr.com/5669/21077467322_a366124245.jpg - best tag: cathedral of santo domingo de la calzada - latitude: 42.441012 - longitude: -2.953691"},"geometry": {"type": "Point","coordinates":[-2.953691,42.441012]}},{"type": "Feature","style": {"marker-color": "#a52222","marker-size": "small","marker-symbol": "star"},"properties": {"name": "cathedral of santo domingo de la calzada","total": "192","info": "title: Santo Domingo de la Calzada - url: https://farm6.staticflickr.com/5553/14178055835_a522873cd7.jpg - best tag: cathedral of santo domingo de la calzada - latitude: 42.440731 - longitude: -2.953552"},"geometry": {"type": "Point","coordinates":[-2.953552,42.440731]}},{"type": "Feature","style": {"marker-color": "#a52222","marker-size": "small","marker-symbol": "star"},"properties": {"name": "cathedral of santo domingo de la calzada","total": "192","info": "title: Santo Domingo de la Calzada - url: https://farm7.staticflickr.com/6173/6132771522_a54bc58140.jpg - best tag: cathedral of santo domingo de la calzada - latitude: 42.440741 - longitude: -2.953781"},"geometry": {"type": "Point","coordinates":[-2.953781,42.440741]}},{"type": "Feature","style": {"marker-color": "#a52222","marker-size": "small","marker-symbol": "star"},"properties": {"name": "cathedral of santo domingo de la calzada","total": "192","info": "title: Santo Domingo de la Calzada - url: https://farm4.staticflickr.com/3306/4575991718_d7c43778d2.jpg - best tag: cathedral of santo domingo de la calzada - latitude: 42.441257 - longitude: -2.951781"},"geometry": {"type": "Point","coordinates":[-2.951781,42.441257]}},{"type": "Feature","style": {"marker-color": "#a52222","marker-size": "small","marker-symbol": "star"},"properties": {"name": "cathedral of santo domingo de la calzada","total": "192","info": "title: Santo Domingo de la Calzada - url: https://farm6.staticflickr.com/5100/5530077322_3cea761dcf.jpg - best tag: cathedral of santo domingo de la calzada - latitude: 42.440695 - longitude: -2.952972"},"geometry": {"type": "Point","coordinates":[-2.952972,42.440695]}},{"type": "Feature","style": {"marker-color": "#a52222","marker-size": "small","marker-symbol": "star"},"properties": {"name": "cathedral of santo domingo de la calzada","total": "192","info": "title: Santo Domingo de la Calzada - url: https://farm1.staticflickr.com/713/20812849926_1d0e87e377.jpg - best tag: cathedral of santo domingo de la calzada - latitude: 42.440791 - longitude: -2.953845"},"geometry": {"type": "Point","coordinates":[-2.953845,42.440791]}},{"type": "Feature","style": {"marker-color": "#a52222","marker-size": "small","marker-symbol": "star"},"properties": {"name": "cathedral of santo domingo de la calzada","total": "192","info": "title: Santo Domingo de la Calzada - url: https://farm6.staticflickr.com/5616/15565157662_c599f527ed.jpg - best tag: cathedral of santo domingo de la calzada - latitude: 42.441922 - longitude: -2.952865"},"geometry": {"type": "Point","coordinates":[-2.952865,42.441922]}},{"type": "Feature","style": {"marker-color": "#a52222","marker-size": "small","marker-symbol": "star"},"properties": {"name": "cathedral of santo domingo de la calzada","total": "192","info": "title: Santo Domingo de la Calzada - url: https://farm9.staticflickr.com/8442/7851752788_6b056216bf.jpg - best tag: cathedral of santo domingo de la calzada - latitude: 42.440893 - longitude: -2.953906"},"geometry": {"type": "Point","coordinates":[-2.953906,42.440893]}},{"type": "Feature","style": {"marker-color": "#a52222","marker-size": "small","marker-symbol": "star"},"properties": {"name": "cathedral of santo domingo de la calzada","total": "192","info": "title: Santo Domingo de la Calzada - url: https://farm8.staticflickr.com/7319/9628073012_36020cf013.jpg - best tag: cathedral of santo domingo de la calzada - latitude: 42.441075 - longitude: -2.953934"},"geometry": {"type": "Point","coordinates":[-2.953934,42.441075]}},{"type": "Feature","style": {"marker-color": "#a52222","marker-size": "small","marker-symbol": "star"},"properties": {"name": "cathedral of santo domingo de la calzada","total": "192","info": "title: Santo Domingo de la Calzada - url: https://farm9.staticflickr.com/8435/8011145873_29c469bf00.jpg - best tag: cathedral of santo domingo de la calzada - latitude: 42.440667 - longitude: -2.953833"},"geometry": {"type": "Point","coordinates":[-2.953833,42.440667]}},{"type": "Feature","style": {"marker-color": "#a52222","marker-size": "small","marker-symbol": "star"},"properties": {"name": "cathedral of santo domingo de la calzada","total": "192","info": "title: Santo Domingo de la Calzada - url: https://farm1.staticflickr.com/268/19119709998_9066dac8e9.jpg - best tag: cathedral of santo domingo de la calzada - latitude: 42.441107 - longitude: -2.953702"},"geometry": {"type": "Point","coordinates":[-2.953702,42.441107]}},{"type": "Feature","style": {"marker-color": "#a52222","marker-size": "small","marker-symbol": "star"},"properties": {"name": "cathedral of santo domingo de la calzada","total": "192","info": "title: Santo Domingo de la Calzada - url: https://farm5.staticflickr.com/4025/4691282074_12ff2427d3.jpg - best tag: cathedral of santo domingo de la calzada - latitude: 42.440608 - longitude: -2.952940"},"geometry": {"type": "Point","coordinates":[-2.952940,42.440608]}},{"type": "Feature","style": {"marker-color": "#a52222","marker-size": "small","marker-symbol": "star"},"properties": {"name": "cathedral of santo domingo de la calzada","total": "192","info": "title: Santo Domingo de la Calzada - url: https://farm5.staticflickr.com/4067/4666627363_e39db55a37.jpg - best tag: cathedral of santo domingo de la calzada - latitude: 42.441146 - longitude: -2.953691"},"geometry": {"type": "Point","coordinates":[-2.953691,42.441146]}},{"type": "Feature","style": {"marker-color": "#a52222","marker-size": "small","marker-symbol": "star"},"properties": {"name": "cathedral of santo domingo de la calzada","total": "192","info": "title: Santo Domingo de la Calzada - url: https://farm5.staticflickr.com/4059/4700461463_6caf6607ab.jpg - best tag: cathedral of santo domingo de la calzada - latitude: 42.440489 - longitude: -2.953412"},"geometry": {"type": "Point","coordinates":[-2.953412,42.440489]}},{"type": "Feature","style": {"marker-color": "#a52222","marker-size": "small","marker-symbol": "star"},"properties": {"name": "cathedral of santo domingo de la calzada","total": "192","info": "title: Santo Domingo de la Calzada - url: https://farm9.staticflickr.com/8091/8465211401_ecbec47bcf.jpg - best tag: cathedral of santo domingo de la calzada - latitude: 42.441107 - longitude: -2.953895"},"geometry": {"type": "Point","coordinates":[-2.953895,42.441107]}},{"type": "Feature","style": {"marker-color": "#a52222","marker-size": "small","marker-symbol": "star"},"properties": {"name": "cathedral of santo domingo de la calzada","total": "192","info": "title: Santo Domingo de la Calzada - url: https://farm9.staticflickr.com/8300/7851721784_7669932dcb.jpg - best tag: cathedral of santo domingo de la calzada - latitude: 42.440893 - longitude: -2.953906"},"geometry": {"type": "Point","coordinates":[-2.953906,42.440893]}},{"type": "Feature","style": {"marker-color": "#a52222","marker-size": "small","marker-symbol": "star"},"properties": {"name": "cathedral of santo domingo de la calzada","total": "192","info": "title: Santo Domingo de la Calzada - url: https://farm6.staticflickr.com/5677/20839159525_5d5730c56b.jpg - best tag: cathedral of santo domingo de la calzada - latitude: 42.440791 - longitude: -2.953845"},"geometry": {"type": "Point","coordinates":[-2.953845,42.440791]}},{"type": "Feature","style": {"marker-color": "#a52222","marker-size": "small","marker-symbol": "star"},"properties": {"name": "cathedral of santo domingo de la calzada","total": "192","info": "title: Santo Domingo de la Calzada - url: https://farm7.staticflickr.com/6055/6332848108_929bf3a3b8.jpg - best tag: cathedral of santo domingo de la calzada - latitude: 42.440716 - longitude: -2.954192"},"geometry": {"type": "Point","coordinates":[-2.954192,42.440716]}},{"type": "Feature","style": {"marker-color": "#a52222","marker-size": "small","marker-symbol": "star"},"properties": {"name": "cathedral of santo domingo de la calzada","total": "192","info": "title: Santo Domingo de la Calzada - url: https://farm6.staticflickr.com/5496/9519397698_699851e39a.jpg - best tag: cathedral of santo domingo de la calzada - latitude: 42.440930 - longitude: -2.953100"},"geometry": {"type": "Point","coordinates":[-2.953100,42.440930]}},{"type": "Feature","style": {"marker-color": "#a52222","marker-size": "small","marker-symbol": "star"},"properties": {"name": "cathedral of santo domingo de la calzada","total": "192","info": "title: Santo Domingo de la Calzada - url: https://farm7.staticflickr.com/6181/6132821554_184e1737a8.jpg - best tag: cathedral of santo domingo de la calzada - latitude: 42.441040 - longitude: -2.954261"},"geometry": {"type": "Point","coordinates":[-2.954261,42.441040]}},{"type": "Feature","style": {"marker-color": "#a52222","marker-size": "small","marker-symbol": "star"},"properties": {"name": "cathedral of santo domingo de la calzada","total": "192","info": "title: Santo Domingo de la Calzada - url: https://farm4.staticflickr.com/3756/10009530695_1336a35ae6.jpg - best tag: cathedral of santo domingo de la calzada - latitude: 42.440735 - longitude: -2.953712"},"geometry": {"type": "Point","coordinates":[-2.953712,42.440735]}},{"type": "Feature","style": {"marker-color": "#a52222","marker-size": "small","marker-symbol": "star"},"properties": {"name": "cathedral of santo domingo de la calzada","total": "192","info": "title: Santo Domingo de la Calzada - url: https://farm4.staticflickr.com/3849/14876331318_ab6ea1384c.jpg - best tag: cathedral of santo domingo de la calzada - latitude: 42.440956 - longitude: -2.953225"},"geometry": {"type": "Point","coordinates":[-2.953225,42.440956]}},{"type": "Feature","style": {"marker-color": "#a52222","marker-size": "small","marker-symbol": "star"},"properties": {"name": "cathedral of santo domingo de la calzada","total": "192","info": "title: Santo Domingo de la Calzada - url: https://farm3.staticflickr.com/2861/10896894603_993a00e82f.jpg - best tag: cathedral of santo domingo de la calzada - latitude: 42.440947 - longitude: -2.953234"},"geometry": {"type": "Point","coordinates":[-2.953234,42.440947]}},{"type": "Feature","style": {"marker-color": "#a52222","marker-size": "small","marker-symbol": "star"},"properties": {"name": "cathedral of santo domingo de la calzada","total": "192","info": "title: Santo Domingo de la Calzada - url: https://farm8.staticflickr.com/7156/6515819229_e21da75589.jpg - best tag: cathedral of santo domingo de la calzada - latitude: 42.440716 - longitude: -2.954192"},"geometry": {"type": "Point","coordinates":[-2.954192,42.440716]}},{"type": "Feature","style": {"marker-color": "#a52222","marker-size": "small","marker-symbol": "star"},"properties": {"name": "cathedral of santo domingo de la calzada","total": "192","info": "title: Santo Domingo de la Calzada - url: https://farm1.staticflickr.com/747/20218155303_64aa3f5cda.jpg - best tag: cathedral of santo domingo de la calzada - latitude: 42.441058 - longitude: -2.953937"},"geometry": {"type": "Point","coordinates":[-2.953937,42.441058]}},{"type": "Feature","style": {"marker-color": "#a52222","marker-size": "small","marker-symbol": "star"},"properties": {"name": "cathedral of santo domingo de la calzada","total": "192","info": "title: Santo Domingo de la Calzada - url: https://farm8.staticflickr.com/7385/9323085724_3020a2af85.jpg - best tag: cathedral of santo domingo de la calzada - latitude: 42.441079 - longitude: -2.953632"},"geometry": {"type": "Point","coordinates":[-2.953632,42.441079]}},{"type": "Feature","style": {"marker-color": "#a52222","marker-size": "small","marker-symbol": "star"},"properties": {"name": "cathedral of santo domingo de la calzada","total": "192","info": "title: Santo Domingo de la Calzada - url: https://farm8.staticflickr.com/7406/9618521792_d57ce0496f.jpg - best tag: cathedral of santo domingo de la calzada - latitude: 42.440677 - longitude: -2.953776"},"geometry": {"type": "Point","coordinates":[-2.953776,42.440677]}},{"type": "Feature","style": {"marker-color": "#a52222","marker-size": "small","marker-symbol": "star"},"properties": {"name": "cathedral of santo domingo de la calzada","total": "192","info": "title: Santo Domingo de la Calzada - url: https://farm1.staticflickr.com/510/19816589379_98f2412504.jpg - best tag: cathedral of santo domingo de la calzada - latitude: 42.441526 - longitude: -2.954163"},"geometry": {"type": "Point","coordinates":[-2.954163,42.441526]}},{"type": "Feature","style": {"marker-color": "#a52222","marker-size": "small","marker-symbol": "star"},"properties": {"name": "cathedral of santo domingo de la calzada","total": "192","info": "title: Santo Domingo de la Calzada - url: https://farm5.staticflickr.com/4006/4691197554_687b47acb1.jpg - best tag: cathedral of santo domingo de la calzada - latitude: 42.440426 - longitude: -2.952103"},"geometry": {"type": "Point","coordinates":[-2.952103,42.440426]}},{"type": "Feature","style": {"marker-color": "#a52222","marker-size": "small","marker-symbol": "star"},"properties": {"name": "cathedral of santo domingo de la calzada","total": "192","info": "title: Santo Domingo de la Calzada - url: https://farm7.staticflickr.com/6173/6132205047_7d8f84c083.jpg - best tag: cathedral of santo domingo de la calzada - latitude: 42.440723 - longitude: -2.953761"},"geometry": {"type": "Point","coordinates":[-2.953761,42.440723]}},{"type": "Feature","style": {"marker-color": "#a52222","marker-size": "small","marker-symbol": "star"},"properties": {"name": "cathedral of santo domingo de la calzada","total": "192","info": "title: Santo Domingo de la Calzada - url: https://farm4.staticflickr.com/3814/10020373626_f4ec2431ed.jpg - best tag: cathedral of santo domingo de la calzada - latitude: 42.441780 - longitude: -2.957384"},"geometry": {"type": "Point","coordinates":[-2.957384,42.441780]}},{"type": "Feature","style": {"marker-color": "#a52222","marker-size": "small","marker-symbol": "star"},"properties": {"name": "cathedral of santo domingo de la calzada","total": "192","info": "title: Santo Domingo de la Calzada - url: https://farm1.staticflickr.com/627/20839157245_02cc169bed.jpg - best tag: cathedral of santo domingo de la calzada - latitude: 42.440811 - longitude: -2.953567"},"geometry": {"type": "Point","coordinates":[-2.953567,42.440811]}},{"type": "Feature","style": {"marker-color": "#a52222","marker-size": "small","marker-symbol": "star"},"properties": {"name": "cathedral of santo domingo de la calzada","total": "192","info": "title: Santo Domingo de la Calzada - url: https://farm7.staticflickr.com/6062/6132206597_e0f78c899f.jpg - best tag: cathedral of santo domingo de la calzada - latitude: 42.440726 - longitude: -2.953785"},"geometry": {"type": "Point","coordinates":[-2.953785,42.440726]}},{"type": "Feature","style": {"marker-color": "#a52222","marker-size": "small","marker-symbol": "star"},"properties": {"name": "cathedral of santo domingo de la calzada","total": "192","info": "title: Santo Domingo de la Calzada - url: https://farm4.staticflickr.com/3683/11291961165_41787946f8.jpg - best tag: cathedral of santo domingo de la calzada - latitude: 42.440768 - longitude: -2.953871"},"geometry": {"type": "Point","coordinates":[-2.953871,42.440768]}},{"type": "Feature","style": {"marker-color": "#a52222","marker-size": "small","marker-symbol": "star"},"properties": {"name": "cathedral of santo domingo de la calzada","total": "192","info": "title: Santo Domingo de la Calzada - url: https://farm8.staticflickr.com/7020/6515762795_6db97af556.jpg - best tag: cathedral of santo domingo de la calzada - latitude: 42.440716 - longitude: -2.954192"},"geometry": {"type": "Point","coordinates":[-2.954192,42.440716]}},{"type": "Feature","style": {"marker-color": "#a52222","marker-size": "small","marker-symbol": "star"},"properties": {"name": "cathedral of santo domingo de la calzada","total": "192","info": "title: Santo Domingo de la Calzada - url: https://farm7.staticflickr.com/6166/6132765710_48fe79701a.jpg - best tag: cathedral of santo domingo de la calzada - latitude: 42.440731 - longitude: -2.953791"},"geometry": {"type": "Point","coordinates":[-2.953791,42.440731]}},{"type": "Feature","style": {"marker-color": "#a52222","marker-size": "small","marker-symbol": "star"},"properties": {"name": "cathedral of santo domingo de la calzada","total": "192","info": "title: Santo Domingo de la Calzada - url: https://farm2.staticflickr.com/1294/4690660929_0396e3f471.jpg - best tag: cathedral of santo domingo de la calzada - latitude: 42.440608 - longitude: -2.952940"},"geometry": {"type": "Point","coordinates":[-2.952940,42.440608]}},{"type": "Feature","style": {"marker-color": "#a52222","marker-size": "small","marker-symbol": "star"},"properties": {"name": "cathedral of santo domingo de la calzada","total": "192","info": "title: Santo Domingo de la Calzada - url: https://farm9.staticflickr.com/8297/8011146427_52e015a3a8.jpg - best tag: cathedral of santo domingo de la calzada - latitude: 42.440667 - longitude: -2.953833"},"geometry": {"type": "Point","coordinates":[-2.953833,42.440667]}},{"type": "Feature","style": {"marker-color": "#a52222","marker-size": "small","marker-symbol": "star"},"properties": {"name": "cathedral of santo domingo de la calzada","total": "192","info": "title: Santo Domingo de la Calzada - url: https://farm5.staticflickr.com/4012/5153181869_6fa92a7493.jpg - best tag: cathedral of santo domingo de la calzada - latitude: 42.439721 - longitude: -2.953755"},"geometry": {"type": "Point","coordinates":[-2.953755,42.439721]}},{"type": "Feature","style": {"marker-color": "#a52222","marker-size": "small","marker-symbol": "star"},"properties": {"name": "cathedral of santo domingo de la calzada","total": "192","info": "title: Santo Domingo de la Calzada - url: https://farm8.staticflickr.com/7303/9615272407_7c74b5d4a5.jpg - best tag: cathedral of santo domingo de la calzada - latitude: 42.440838 - longitude: -2.953687"},"geometry": {"type": "Point","coordinates":[-2.953687,42.440838]}},{"type": "Feature","style": {"marker-color": "#a52222","marker-size": "small","marker-symbol": "star"},"properties": {"name": "cathedral of santo domingo de la calzada","total": "192","info": "title: Santo Domingo de la Calzada - url: https://farm4.staticflickr.com/3830/10153218036_706567bf43.jpg - best tag: cathedral of santo domingo de la calzada - latitude: 42.440711 - longitude: -2.953476"},"geometry": {"type": "Point","coordinates":[-2.953476,42.440711]}},{"type": "Feature","style": {"marker-color": "#a52222","marker-size": "small","marker-symbol": "star"},"properties": {"name": "cathedral of santo domingo de la calzada","total": "192","info": "title: Santo Domingo de la Calzada - url: https://farm1.staticflickr.com/707/21081645765_949b93ef21.jpg - best tag: cathedral of santo domingo de la calzada - latitude: 42.441012 - longitude: -2.953691"},"geometry": {"type": "Point","coordinates":[-2.953691,42.441012]}},{"type": "Feature","style": {"marker-color": "#a52222","marker-size": "small","marker-symbol": "star"},"properties": {"name": "cathedral of santo domingo de la calzada","total": "192","info": "title: Santo Domingo de la Calzada - url: https://farm3.staticflickr.com/2945/15180489590_ff8456cb61.jpg - best tag: cathedral of santo domingo de la calzada - latitude: 42.441028 - longitude: -2.953991"},"geometry": {"type": "Point","coordinates":[-2.953991,42.441028]}},{"type": "Feature","style": {"marker-color": "#a52222","marker-size": "small","marker-symbol": "star"},"properties": {"name": "cathedral of santo domingo de la calzada","total": "192","info": "title: Santo Domingo de la Calzada - url: https://farm8.staticflickr.com/7262/7024296139_f5edb49df5.jpg - best tag: cathedral of santo domingo de la calzada - latitude: 42.441368 - longitude: -2.956727"},"geometry": {"type": "Point","coordinates":[-2.956727,42.441368]}},{"type": "Feature","style": {"marker-color": "#a52222","marker-size": "small","marker-symbol": "star"},"properties": {"name": "cathedral of santo domingo de la calzada","total": "192","info": "title: Santo Domingo de la Calzada - url: https://farm4.staticflickr.com/3860/14949998912_28286463ef.jpg - best tag: cathedral of santo domingo de la calzada - latitude: 42.441566 - longitude: -2.953401"},"geometry": {"type": "Point","coordinates":[-2.953401,42.441566]}},{"type": "Feature","style": {"marker-color": "#a52222","marker-size": "small","marker-symbol": "star"},"properties": {"name": "cathedral of santo domingo de la calzada","total": "192","info": "title: Santo Domingo de la Calzada - url: https://farm7.staticflickr.com/6078/6132781010_5fc865ecfa.jpg - best tag: cathedral of santo domingo de la calzada - latitude: 42.441646 - longitude: -2.953221"},"geometry": {"type": "Point","coordinates":[-2.953221,42.441646]}},{"type": "Feature","style": {"marker-color": "#a52222","marker-size": "small","marker-symbol": "star"},"properties": {"name": "cathedral of santo domingo de la calzada","total": "192","info": "title: Santo Domingo de la Calzada - url: https://farm9.staticflickr.com/8727/16842261548_eb111b01e6.jpg - best tag: cathedral of santo domingo de la calzada - latitude: 42.440765 - longitude: -2.953361"},"geometry": {"type": "Point","coordinates":[-2.953361,42.440765]}},{"type": "Feature","style": {"marker-color": "#a52222","marker-size": "small","marker-symbol": "star"},"properties": {"name": "cathedral of santo domingo de la calzada","total": "192","info": "title: Santo Domingo de la Calzada - url: https://farm9.staticflickr.com/8047/8382637077_d1a94c9a01.jpg - best tag: cathedral of santo domingo de la calzada - latitude: 42.440783 - longitude: -2.953134"},"geometry": {"type": "Point","coordinates":[-2.953134,42.440783]}},{"type": "Feature","style": {"marker-color": "#a52222","marker-size": "small","marker-symbol": "star"},"properties": {"name": "cathedral of santo domingo de la calzada","total": "192","info": "title: Santo Domingo de la Calzada - url: https://farm6.staticflickr.com/5765/20812854256_d28e781de0.jpg - best tag: cathedral of santo domingo de la calzada - latitude: 42.441022 - longitude: -2.953628"},"geometry": {"type": "Point","coordinates":[-2.953628,42.441022]}},{"type": "Feature","style": {"marker-color": "#a52222","marker-size": "small","marker-symbol": "star"},"properties": {"name": "cathedral of santo domingo de la calzada","total": "192","info": "title: Santo Domingo de la Calzada - url: https://farm6.staticflickr.com/5515/14457534223_79aa849880.jpg - best tag: cathedral of santo domingo de la calzada - latitude: 42.441436 - longitude: -2.953283"},"geometry": {"type": "Point","coordinates":[-2.953283,42.441436]}},{"type": "Feature","style": {"marker-color": "#a52222","marker-size": "small","marker-symbol": "star"},"properties": {"name": "cathedral of santo domingo de la calzada","total": "192","info": "title: Santo Domingo de la Calzada - url: https://farm9.staticflickr.com/8032/7991969981_7876fd6d45.jpg - best tag: cathedral of santo domingo de la calzada - latitude: 42.440947 - longitude: -2.953556"},"geometry": {"type": "Point","coordinates":[-2.953556,42.440947]}}]}