{"type": "FeatureCollection","features": [{"type": "Feature","style": {"marker-color": "#a52222","marker-size": "small","marker-symbol": "star"},"properties": {"name": "sky","total": "130","info": "title: Santo Domingo de la Calzada - url: https://farm4.staticflickr.com/3745/12302513465_85ba155f59.jpg - best tag: sky - latitude: 42.441194 - longitude: -2.953863"},"geometry": {"type": "Point","coordinates":[-2.953863,42.441194]}},{"type": "Feature","style": {"marker-color": "#a52222","marker-size": "small","marker-symbol": "star"},"properties": {"name": "sky","total": "130","info": "title: Ciruena - url: https://farm6.staticflickr.com/5556/15243963592_cb5f2945f5.jpg - best tag: sky - latitude: 42.411183 - longitude: -2.896248"},"geometry": {"type": "Point","coordinates":[-2.896248,42.411183]}},{"type": "Feature","style": {"marker-color": "#a52222","marker-size": "small","marker-symbol": "star"},"properties": {"name": "sky","total": "130","info": "title: Santo Domingo de la Calzada - url: https://farm5.staticflickr.com/4035/4665522359_373d31f47b.jpg - best tag: sky - latitude: 42.439721 - longitude: -2.957596"},"geometry": {"type": "Point","coordinates":[-2.957596,42.439721]}},{"type": "Feature","style": {"marker-color": "#a52222","marker-size": "small","marker-symbol": "star"},"properties": {"name": "sky","total": "130","info": "title: Santo Domingo de la Calzada - url: https://farm8.staticflickr.com/7056/7006079733_38542b378e.jpg - best tag: sky - latitude: 42.439158 - longitude: -2.944888"},"geometry": {"type": "Point","coordinates":[-2.944888,42.439158]}},{"type": "Feature","style": {"marker-color": "#a52222","marker-size": "small","marker-symbol": "star"},"properties": {"name": "sky","total": "130","info": "title: Santo Domingo de la Calzada - url: https://farm9.staticflickr.com/8367/8465117563_7743079cd1.jpg - best tag: sky - latitude: 42.441107 - longitude: -2.953895"},"geometry": {"type": "Point","coordinates":[-2.953895,42.441107]}},{"type": "Feature","style": {"marker-color": "#a52222","marker-size": "small","marker-symbol": "star"},"properties": {"name": "sky","total": "130","info": "title: San Torcuato - url: https://farm8.staticflickr.com/7556/15891432221_a11cf45460.jpg - best tag: sky - latitude: 42.483539 - longitude: -2.889211"},"geometry": {"type": "Point","coordinates":[-2.889211,42.483539]}},{"type": "Feature","style": {"marker-color": "#a52222","marker-size": "small","marker-symbol": "star"},"properties": {"name": "sky","total": "130","info": "title: Santo Domingo de la Calzada - url: https://farm5.staticflickr.com/4140/4908404365_36254833bc.jpg - best tag: sky - latitude: 42.440833 - longitude: -2.953833"},"geometry": {"type": "Point","coordinates":[-2.953833,42.440833]}},{"type": "Feature","style": {"marker-color": "#a52222","marker-size": "small","marker-symbol": "star"},"properties": {"name": "sky","total": "130","info": "title: Santo Domingo de la Calzada - url: https://farm6.staticflickr.com/5607/15615975691_76c647f960.jpg - best tag: sky - latitude: 42.440808 - longitude: -2.952998"},"geometry": {"type": "Point","coordinates":[-2.952998,42.440808]}},{"type": "Feature","style": {"marker-color": "#a52222","marker-size": "small","marker-symbol": "star"},"properties": {"name": "sky","total": "130","info": "title: Ciruena - url: https://farm8.staticflickr.com/7194/13582481945_4593b4d883.jpg - best tag: sky - latitude: 42.416377 - longitude: -2.889042"},"geometry": {"type": "Point","coordinates":[-2.889042,42.416377]}},{"type": "Feature","style": {"marker-color": "#a52222","marker-size": "small","marker-symbol": "star"},"properties": {"name": "sky","total": "130","info": "title: Santo Domingo de la Calzada - url: https://farm5.staticflickr.com/4142/4814267864_508e56cfe6.jpg - best tag: sky - latitude: 42.430844 - longitude: -2.928020"},"geometry": {"type": "Point","coordinates":[-2.928020,42.430844]}},{"type": "Feature","style": {"marker-color": "#a52222","marker-size": "small","marker-symbol": "star"},"properties": {"name": "sky","total": "130","info": "title: Santo Domingo de la Calzada - url: https://farm3.staticflickr.com/2923/14468390769_3214795da8.jpg - best tag: sky - latitude: 42.440762 - longitude: -2.953519"},"geometry": {"type": "Point","coordinates":[-2.953519,42.440762]}},{"type": "Feature","style": {"marker-color": "#a52222","marker-size": "small","marker-symbol": "star"},"properties": {"name": "sky","total": "130","info": "title: Ciruena - url: https://farm7.staticflickr.com/6006/6205237184_fd322ac2ef.jpg - best tag: sky - latitude: 42.413225 - longitude: -2.896720"},"geometry": {"type": "Point","coordinates":[-2.896720,42.413225]}},{"type": "Feature","style": {"marker-color": "#a52222","marker-size": "small","marker-symbol": "star"},"properties": {"name": "sky","total": "130","info": "title: Ciruena - url: https://farm8.staticflickr.com/7241/7006072469_fd4e7430b0.jpg - best tag: sky - latitude: 42.415694 - longitude: -2.892908"},"geometry": {"type": "Point","coordinates":[-2.892908,42.415694]}},{"type": "Feature","style": {"marker-color": "#a52222","marker-size": "small","marker-symbol": "star"},"properties": {"name": "sky","total": "130","info": "title: Ciruena - url: https://farm4.staticflickr.com/3804/13582766664_8d4d4b10aa.jpg - best tag: sky - latitude: 42.418452 - longitude: -2.886003"},"geometry": {"type": "Point","coordinates":[-2.886003,42.418452]}},{"type": "Feature","style": {"marker-color": "#a52222","marker-size": "small","marker-symbol": "star"},"properties": {"name": "sky","total": "130","info": "title: Santo Domingo de la Calzada - url: https://farm8.staticflickr.com/7458/10153259566_42ae8f8543.jpg - best tag: sky - latitude: 42.441226 - longitude: -2.953895"},"geometry": {"type": "Point","coordinates":[-2.953895,42.441226]}},{"type": "Feature","style": {"marker-color": "#a52222","marker-size": "small","marker-symbol": "star"},"properties": {"name": "sky","total": "130","info": "title: Banares - url: https://farm8.staticflickr.com/7376/9145520664_bf63235073.jpg - best tag: sky - latitude: 42.468652 - longitude: -2.911156"},"geometry": {"type": "Point","coordinates":[-2.911156,42.468652]}},{"type": "Feature","style": {"marker-color": "#a52222","marker-size": "small","marker-symbol": "star"},"properties": {"name": "sky","total": "130","info": "title: Santo Domingo de la Calzada - url: https://farm4.staticflickr.com/3714/13583428604_1469829e93.jpg - best tag: sky - latitude: 42.440433 - longitude: -2.949217"},"geometry": {"type": "Point","coordinates":[-2.949217,42.440433]}},{"type": "Feature","style": {"marker-color": "#a52222","marker-size": "small","marker-symbol": "star"},"properties": {"name": "sky","total": "130","info": "title: Santo Domingo de la Calzada - url: https://farm8.staticflickr.com/7164/13583150603_39b60e1c9f.jpg - best tag: sky - latitude: 42.440786 - longitude: -2.951853"},"geometry": {"type": "Point","coordinates":[-2.951853,42.440786]}},{"type": "Feature","style": {"marker-color": "#a52222","marker-size": "small","marker-symbol": "star"},"properties": {"name": "sky","total": "130","info": "title: Santo Domingo de la Calzada - url: https://farm9.staticflickr.com/8245/8466219938_405bc5c286.jpg - best tag: sky - latitude: 42.441107 - longitude: -2.953895"},"geometry": {"type": "Point","coordinates":[-2.953895,42.441107]}},{"type": "Feature","style": {"marker-color": "#a52222","marker-size": "small","marker-symbol": "star"},"properties": {"name": "sky","total": "130","info": "title: Santo Domingo de la Calzada - url: https://farm8.staticflickr.com/7275/13583560124_817ea834e7.jpg - best tag: sky - latitude: 42.440925 - longitude: -2.952748"},"geometry": {"type": "Point","coordinates":[-2.952748,42.440925]}},{"type": "Feature","style": {"marker-color": "#a52222","marker-size": "small","marker-symbol": "star"},"properties": {"name": "sky","total": "130","info": "title: Banares - url: https://farm3.staticflickr.com/2869/9555284191_ee04b1d254.jpg - best tag: sky - latitude: 42.468319 - longitude: -2.912289"},"geometry": {"type": "Point","coordinates":[-2.912289,42.468319]}},{"type": "Feature","style": {"marker-color": "#a52222","marker-size": "small","marker-symbol": "star"},"properties": {"name": "sky","total": "130","info": "title: Ciruena - url: https://farm4.staticflickr.com/3789/13582946915_2c3a48721a.jpg - best tag: sky - latitude: 42.421819 - longitude: -2.917034"},"geometry": {"type": "Point","coordinates":[-2.917034,42.421819]}},{"type": "Feature","style": {"marker-color": "#a52222","marker-size": "small","marker-symbol": "star"},"properties": {"name": "sky","total": "130","info": "title: Santo Domingo de la Calzada - url: https://farm3.staticflickr.com/2752/4331633889_33ee729e7f.jpg - best tag: sky - latitude: 42.441613 - longitude: -2.956953"},"geometry": {"type": "Point","coordinates":[-2.956953,42.441613]}},{"type": "Feature","style": {"marker-color": "#a52222","marker-size": "small","marker-symbol": "star"},"properties": {"name": "sky","total": "130","info": "title: Ciruena - url: https://farm4.staticflickr.com/3873/14602786464_c62f8ee90a.jpg - best tag: sky - latitude: 42.416138 - longitude: -2.905250"},"geometry": {"type": "Point","coordinates":[-2.905250,42.416138]}},{"type": "Feature","style": {"marker-color": "#a52222","marker-size": "small","marker-symbol": "star"},"properties": {"name": "sky","total": "130","info": "title: Ciruena - url: https://farm8.staticflickr.com/7587/16807186502_12e3b77b68.jpg - best tag: sky - latitude: 42.414070 - longitude: -2.894339"},"geometry": {"type": "Point","coordinates":[-2.894339,42.414070]}},{"type": "Feature","style": {"marker-color": "#a52222","marker-size": "small","marker-symbol": "star"},"properties": {"name": "sky","total": "130","info": "title: Santo Domingo de la Calzada - url: https://farm4.staticflickr.com/3876/14359199214_1b0eeb814a.jpg - best tag: sky - latitude: 42.427472 - longitude: -2.924230"},"geometry": {"type": "Point","coordinates":[-2.924230,42.427472]}},{"type": "Feature","style": {"marker-color": "#a52222","marker-size": "small","marker-symbol": "star"},"properties": {"name": "sky","total": "130","info": "title: Santo Domingo de la Calzada - url: https://farm4.staticflickr.com/3690/9624850591_06ec2943c8.jpg - best tag: sky - latitude: 42.442197 - longitude: -2.954575"},"geometry": {"type": "Point","coordinates":[-2.954575,42.442197]}},{"type": "Feature","style": {"marker-color": "#a52222","marker-size": "small","marker-symbol": "star"},"properties": {"name": "sky","total": "130","info": "title: Santo Domingo de la Calzada - url: https://farm4.staticflickr.com/3800/10153473963_4757804dc6.jpg - best tag: sky - latitude: 42.440711 - longitude: -2.953476"},"geometry": {"type": "Point","coordinates":[-2.953476,42.440711]}},{"type": "Feature","style": {"marker-color": "#a52222","marker-size": "small","marker-symbol": "star"},"properties": {"name": "sky","total": "130","info": "title: Santo Domingo de la Calzada - url: https://farm9.staticflickr.com/8349/8205115632_0235044bfb.jpg - best tag: sky - latitude: 42.441811 - longitude: -2.955257"},"geometry": {"type": "Point","coordinates":[-2.955257,42.441811]}},{"type": "Feature","style": {"marker-color": "#a52222","marker-size": "small","marker-symbol": "star"},"properties": {"name": "sky","total": "130","info": "title: Ciruena - url: https://farm8.staticflickr.com/7449/13582503765_f572f71fb0.jpg - best tag: sky - latitude: 42.416116 - longitude: -2.889420"},"geometry": {"type": "Point","coordinates":[-2.889420,42.416116]}},{"type": "Feature","style": {"marker-color": "#a52222","marker-size": "small","marker-symbol": "star"},"properties": {"name": "sky","total": "130","info": "title: Santo Domingo de la Calzada - url: https://farm3.staticflickr.com/2900/14018975375_1410e61dda.jpg - best tag: sky - latitude: 42.441102 - longitude: -2.955653"},"geometry": {"type": "Point","coordinates":[-2.955653,42.441102]}},{"type": "Feature","style": {"marker-color": "#a52222","marker-size": "small","marker-symbol": "star"},"properties": {"name": "sky","total": "130","info": "title: Ciruena - url: https://farm8.staticflickr.com/7377/13582344345_eb29fcd65c.jpg - best tag: sky - latitude: 42.418947 - longitude: -2.885439"},"geometry": {"type": "Point","coordinates":[-2.885439,42.418947]}},{"type": "Feature","style": {"marker-color": "#a52222","marker-size": "small","marker-symbol": "star"},"properties": {"name": "sky","total": "130","info": "title: Santo Domingo de la Calzada - url: https://farm8.staticflickr.com/7373/9467457986_31b940c2cf.jpg - best tag: sky - latitude: 42.441043 - longitude: -2.953466"},"geometry": {"type": "Point","coordinates":[-2.953466,42.441043]}},{"type": "Feature","style": {"marker-color": "#a52222","marker-size": "small","marker-symbol": "star"},"properties": {"name": "sky","total": "130","info": "title: San Torcuato - url: https://farm9.staticflickr.com/8486/8244878648_926376413f.jpg - best tag: sky - latitude: 42.482929 - longitude: -2.891292"},"geometry": {"type": "Point","coordinates":[-2.891292,42.482929]}},{"type": "Feature","style": {"marker-color": "#a52222","marker-size": "small","marker-symbol": "star"},"properties": {"name": "sky","total": "130","info": "title: Santo Domingo de la Calzada - url: https://farm7.staticflickr.com/6192/6132773372_9bbe146ac3.jpg - best tag: sky - latitude: 42.440741 - longitude: -2.953781"},"geometry": {"type": "Point","coordinates":[-2.953781,42.440741]}},{"type": "Feature","style": {"marker-color": "#a52222","marker-size": "small","marker-symbol": "star"},"properties": {"name": "sky","total": "130","info": "title: Santo Domingo de la Calzada - url: https://farm6.staticflickr.com/5786/21193414338_044e043308.jpg - best tag: sky - latitude: 42.441012 - longitude: -2.953691"},"geometry": {"type": "Point","coordinates":[-2.953691,42.441012]}},{"type": "Feature","style": {"marker-color": "#a52222","marker-size": "small","marker-symbol": "star"},"properties": {"name": "sky","total": "130","info": "title: Ciruena - url: https://farm5.staticflickr.com/4074/4814267688_fdfa7bbebc.jpg - best tag: sky - latitude: 42.416077 - longitude: -2.905039"},"geometry": {"type": "Point","coordinates":[-2.905039,42.416077]}},{"type": "Feature","style": {"marker-color": "#a52222","marker-size": "small","marker-symbol": "star"},"properties": {"name": "sky","total": "130","info": "title: Santo Domingo de la Calzada - url: https://farm9.staticflickr.com/8465/8082544055_3298799f84.jpg - best tag: sky - latitude: 42.439699 - longitude: -2.955420"},"geometry": {"type": "Point","coordinates":[-2.955420,42.439699]}},{"type": "Feature","style": {"marker-color": "#a52222","marker-size": "small","marker-symbol": "star"},"properties": {"name": "sky","total": "130","info": "title: Santo Domingo de la Calzada - url: https://farm8.staticflickr.com/7049/6960341096_02254ca40d.jpg - best tag: sky - latitude: 42.440669 - longitude: -2.952756"},"geometry": {"type": "Point","coordinates":[-2.952756,42.440669]}},{"type": "Feature","style": {"marker-color": "#a52222","marker-size": "small","marker-symbol": "star"},"properties": {"name": "sky","total": "130","info": "title: Ciruena - url: https://farm7.staticflickr.com/6212/7006076701_ddccd4d3df.jpg - best tag: sky - latitude: 42.422080 - longitude: -2.917297"},"geometry": {"type": "Point","coordinates":[-2.917297,42.422080]}},{"type": "Feature","style": {"marker-color": "#a52222","marker-size": "small","marker-symbol": "star"},"properties": {"name": "sky","total": "130","info": "title: Ciruena - url: https://farm8.staticflickr.com/7272/6859956904_f91fff5d46.jpg - best tag: sky - latitude: 42.422080 - longitude: -2.917297"},"geometry": {"type": "Point","coordinates":[-2.917297,42.422080]}},{"type": "Feature","style": {"marker-color": "#a52222","marker-size": "small","marker-symbol": "star"},"properties": {"name": "sky","total": "130","info": "title: Santo Domingo de la Calzada - url: https://farm6.staticflickr.com/5704/20466907303_85a22bd3a0.jpg - best tag: sky - latitude: 42.441012 - longitude: -2.953691"},"geometry": {"type": "Point","coordinates":[-2.953691,42.441012]}},{"type": "Feature","style": {"marker-color": "#a52222","marker-size": "small","marker-symbol": "star"},"properties": {"name": "sky","total": "130","info": "title: Ciruena - url: https://farm4.staticflickr.com/3699/13582806043_474635d1bb.jpg - best tag: sky - latitude: 42.416202 - longitude: -2.905395"},"geometry": {"type": "Point","coordinates":[-2.905395,42.416202]}},{"type": "Feature","style": {"marker-color": "#a52222","marker-size": "small","marker-symbol": "star"},"properties": {"name": "sky","total": "130","info": "title: Santo Domingo de la Calzada - url: https://farm4.staticflickr.com/3794/9222856652_d871c934d0.jpg - best tag: sky - latitude: 42.441819 - longitude: -2.960182"},"geometry": {"type": "Point","coordinates":[-2.960182,42.441819]}},{"type": "Feature","style": {"marker-color": "#a52222","marker-size": "small","marker-symbol": "star"},"properties": {"name": "sky","total": "130","info": "title: Santo Domingo de la Calzada - url: https://farm6.staticflickr.com/5511/14522341912_d6b44a97bc.jpg - best tag: sky - latitude: 42.441827 - longitude: -2.960397"},"geometry": {"type": "Point","coordinates":[-2.960397,42.441827]}},{"type": "Feature","style": {"marker-color": "#a52222","marker-size": "small","marker-symbol": "star"},"properties": {"name": "sky","total": "130","info": "title: Santo Domingo de la Calzada - url: https://farm1.staticflickr.com/775/20216539744_e4546dd197.jpg - best tag: sky - latitude: 42.440794 - longitude: -2.953484"},"geometry": {"type": "Point","coordinates":[-2.953484,42.440794]}},{"type": "Feature","style": {"marker-color": "#a52222","marker-size": "small","marker-symbol": "star"},"properties": {"name": "sky","total": "130","info": "title: Santo Domingo de la Calzada - url: https://farm4.staticflickr.com/3682/10518056496_c452b54469.jpg - best tag: sky - latitude: 42.440833 - longitude: -2.953834"},"geometry": {"type": "Point","coordinates":[-2.953834,42.440833]}},{"type": "Feature","style": {"marker-color": "#a52222","marker-size": "small","marker-symbol": "star"},"properties": {"name": "sky","total": "130","info": "title: Santo Domingo de la Calzada - url: https://farm9.staticflickr.com/8079/8338573456_eec3aa2e18.jpg - best tag: sky - latitude: 42.440909 - longitude: -2.954335"},"geometry": {"type": "Point","coordinates":[-2.954335,42.440909]}},{"type": "Feature","style": {"marker-color": "#a52222","marker-size": "small","marker-symbol": "star"},"properties": {"name": "sky","total": "130","info": "title: Santo Domingo de la Calzada - url: https://farm9.staticflickr.com/8480/8204024025_ab0b3f0bbc.jpg - best tag: sky - latitude: 42.442160 - longitude: -2.954356"},"geometry": {"type": "Point","coordinates":[-2.954356,42.442160]}},{"type": "Feature","style": {"marker-color": "#a52222","marker-size": "small","marker-symbol": "star"},"properties": {"name": "sky","total": "130","info": "title: Santo Domingo de la Calzada - url: https://farm9.staticflickr.com/8351/8383721242_51dbd3a87e.jpg - best tag: sky - latitude: 42.440783 - longitude: -2.953134"},"geometry": {"type": "Point","coordinates":[-2.953134,42.440783]}},{"type": "Feature","style": {"marker-color": "#a52222","marker-size": "small","marker-symbol": "star"},"properties": {"name": "sky","total": "130","info": "title: Ciruena - url: https://farm4.staticflickr.com/3914/15057551889_f7c604853f.jpg - best tag: sky - latitude: 42.411183 - longitude: -2.896248"},"geometry": {"type": "Point","coordinates":[-2.896248,42.411183]}},{"type": "Feature","style": {"marker-color": "#a52222","marker-size": "small","marker-symbol": "star"},"properties": {"name": "sky","total": "130","info": "title: Ciruena - url: https://farm8.staticflickr.com/7138/6859959230_feabc5a6cb.jpg - best tag: sky - latitude: 42.422080 - longitude: -2.917297"},"geometry": {"type": "Point","coordinates":[-2.917297,42.422080]}},{"type": "Feature","style": {"marker-color": "#a52222","marker-size": "small","marker-symbol": "star"},"properties": {"name": "sky","total": "130","info": "title: Banares - url: https://farm8.staticflickr.com/7298/9555280757_a739387edd.jpg - best tag: sky - latitude: 42.468108 - longitude: -2.911503"},"geometry": {"type": "Point","coordinates":[-2.911503,42.468108]}},{"type": "Feature","style": {"marker-color": "#a52222","marker-size": "small","marker-symbol": "star"},"properties": {"name": "sky","total": "130","info": "title: San Torcuato - url: https://farm8.staticflickr.com/7538/15891432181_03bd722b54.jpg - best tag: sky - latitude: 42.483111 - longitude: -2.888910"},"geometry": {"type": "Point","coordinates":[-2.888910,42.483111]}},{"type": "Feature","style": {"marker-color": "#a52222","marker-size": "small","marker-symbol": "star"},"properties": {"name": "sky","total": "130","info": "title: Ciruena - url: https://farm9.staticflickr.com/8188/8382625271_4d7d4848f1.jpg - best tag: sky - latitude: 42.414158 - longitude: -2.896571"},"geometry": {"type": "Point","coordinates":[-2.896571,42.414158]}},{"type": "Feature","style": {"marker-color": "#a52222","marker-size": "small","marker-symbol": "star"},"properties": {"name": "sky","total": "130","info": "title: Santo Domingo de la Calzada - url: https://farm3.staticflickr.com/2815/11530613884_dcb40ea134.jpg - best tag: sky - latitude: 42.440791 - longitude: -2.954335"},"geometry": {"type": "Point","coordinates":[-2.954335,42.440791]}},{"type": "Feature","style": {"marker-color": "#a52222","marker-size": "small","marker-symbol": "star"},"properties": {"name": "sky","total": "130","info": "title: Ciruena - url: https://farm4.staticflickr.com/3790/13582484503_17392e5613.jpg - best tag: sky - latitude: 42.416377 - longitude: -2.889042"},"geometry": {"type": "Point","coordinates":[-2.889042,42.416377]}},{"type": "Feature","style": {"marker-color": "#a52222","marker-size": "small","marker-symbol": "star"},"properties": {"name": "sky","total": "130","info": "title: Banares - url: https://farm9.staticflickr.com/8365/8467962017_868c6e3d8a.jpg - best tag: sky - latitude: 42.468567 - longitude: -2.912224"},"geometry": {"type": "Point","coordinates":[-2.912224,42.468567]}},{"type": "Feature","style": {"marker-color": "#a52222","marker-size": "small","marker-symbol": "star"},"properties": {"name": "sky","total": "130","info": "title: Ciruena - url: https://farm8.staticflickr.com/7183/14133174833_8138b76361.jpg - best tag: sky - latitude: 42.410555 - longitude: -2.895834"},"geometry": {"type": "Point","coordinates":[-2.895834,42.410555]}},{"type": "Feature","style": {"marker-color": "#a52222","marker-size": "small","marker-symbol": "star"},"properties": {"name": "sky","total": "130","info": "title: Ciruena - url: https://farm4.staticflickr.com/3790/13582422713_88eeb28a77.jpg - best tag: sky - latitude: 42.418947 - longitude: -2.885439"},"geometry": {"type": "Point","coordinates":[-2.885439,42.418947]}},{"type": "Feature","style": {"marker-color": "#a52222","marker-size": "small","marker-symbol": "star"},"properties": {"name": "sky","total": "130","info": "title: Manzanares de Rioja - url: https://farm8.staticflickr.com/7097/7188577828_352317549c.jpg - best tag: sky - latitude: 42.410128 - longitude: -2.893364"},"geometry": {"type": "Point","coordinates":[-2.893364,42.410128]}},{"type": "Feature","style": {"marker-color": "#a52222","marker-size": "small","marker-symbol": "star"},"properties": {"name": "sky","total": "130","info": "title: Ciruena - url: https://farm8.staticflickr.com/7248/7006071375_2c0188ec7e.jpg - best tag: sky - latitude: 42.415750 - longitude: -2.893036"},"geometry": {"type": "Point","coordinates":[-2.893036,42.415750]}},{"type": "Feature","style": {"marker-color": "#a52222","marker-size": "small","marker-symbol": "star"},"properties": {"name": "sky","total": "130","info": "title: Santo Domingo de la Calzada - url: https://farm8.staticflickr.com/7161/6515816635_4d410591ba.jpg - best tag: sky - latitude: 42.440716 - longitude: -2.954192"},"geometry": {"type": "Point","coordinates":[-2.954192,42.440716]}},{"type": "Feature","style": {"marker-color": "#a52222","marker-size": "small","marker-symbol": "star"},"properties": {"name": "sky","total": "130","info": "title: Santo Domingo de la Calzada - url: https://farm1.staticflickr.com/706/21389751561_25ce7ea3ae.jpg - best tag: sky - latitude: 42.441012 - longitude: -2.953691"},"geometry": {"type": "Point","coordinates":[-2.953691,42.441012]}},{"type": "Feature","style": {"marker-color": "#a52222","marker-size": "small","marker-symbol": "star"},"properties": {"name": "sky","total": "130","info": "title: Santo Domingo de la Calzada - url: https://farm1.staticflickr.com/703/21194173959_5ae176cb56.jpg - best tag: sky - latitude: 42.441012 - longitude: -2.953691"},"geometry": {"type": "Point","coordinates":[-2.953691,42.441012]}},{"type": "Feature","style": {"marker-color": "#a52222","marker-size": "small","marker-symbol": "star"},"properties": {"name": "sky","total": "130","info": "title: Santo Domingo de la Calzada - url: https://farm6.staticflickr.com/5515/9557797664_88570166c1.jpg - best tag: sky - latitude: 42.441105 - longitude: -2.953056"},"geometry": {"type": "Point","coordinates":[-2.953056,42.441105]}},{"type": "Feature","style": {"marker-color": "#a52222","marker-size": "small","marker-symbol": "star"},"properties": {"name": "sky","total": "130","info": "title: Santo Domingo de la Calzada - url: https://farm4.staticflickr.com/3674/10552424783_d8908622ba.jpg - best tag: sky - latitude: 42.438907 - longitude: -2.941248"},"geometry": {"type": "Point","coordinates":[-2.941248,42.438907]}},{"type": "Feature","style": {"marker-color": "#a52222","marker-size": "small","marker-symbol": "star"},"properties": {"name": "sky","total": "130","info": "title: Santo Domingo de la Calzada - url: https://farm2.staticflickr.com/1094/5153184887_3752b0a8d4.jpg - best tag: sky - latitude: 42.439721 - longitude: -2.953755"},"geometry": {"type": "Point","coordinates":[-2.953755,42.439721]}},{"type": "Feature","style": {"marker-color": "#a52222","marker-size": "small","marker-symbol": "star"},"properties": {"name": "sky","total": "130","info": "title: Santo Domingo de la Calzada - url: https://farm5.staticflickr.com/4057/4690616197_7cebcb594e.jpg - best tag: sky - latitude: 42.439800 - longitude: -2.954603"},"geometry": {"type": "Point","coordinates":[-2.954603,42.439800]}},{"type": "Feature","style": {"marker-color": "#a52222","marker-size": "small","marker-symbol": "star"},"properties": {"name": "sky","total": "130","info": "title: Santo Domingo de la Calzada - url: https://farm4.staticflickr.com/3944/15518387278_8bd0f5f4b2.jpg - best tag: sky - latitude: 42.440355 - longitude: -2.954699"},"geometry": {"type": "Point","coordinates":[-2.954699,42.440355]}},{"type": "Feature","style": {"marker-color": "#a52222","marker-size": "small","marker-symbol": "star"},"properties": {"name": "sky","total": "130","info": "title: Santo Domingo de la Calzada - url: https://farm8.staticflickr.com/7027/6515774895_54e45ded48.jpg - best tag: sky - latitude: 42.440716 - longitude: -2.954192"},"geometry": {"type": "Point","coordinates":[-2.954192,42.440716]}},{"type": "Feature","style": {"marker-color": "#a52222","marker-size": "small","marker-symbol": "star"},"properties": {"name": "sky","total": "130","info": "title: Ciruena - url: https://farm5.staticflickr.com/4082/4908403027_8792b21db5.jpg - best tag: sky - latitude: 42.416333 - longitude: -2.905167"},"geometry": {"type": "Point","coordinates":[-2.905167,42.416333]}},{"type": "Feature","style": {"marker-color": "#a52222","marker-size": "small","marker-symbol": "star"},"properties": {"name": "sky","total": "130","info": "title: Santo Domingo de la Calzada - url: https://farm1.staticflickr.com/694/21194229710_53ff784eff.jpg - best tag: sky - latitude: 42.441012 - longitude: -2.953691"},"geometry": {"type": "Point","coordinates":[-2.953691,42.441012]}},{"type": "Feature","style": {"marker-color": "#a52222","marker-size": "small","marker-symbol": "star"},"properties": {"name": "sky","total": "130","info": "title: Santo Domingo de la Calzada - url: https://farm4.staticflickr.com/3689/12324124874_9d1708c564.jpg - best tag: sky - latitude: 42.439872 - longitude: -2.957382"},"geometry": {"type": "Point","coordinates":[-2.957382,42.439872]}},{"type": "Feature","style": {"marker-color": "#a52222","marker-size": "small","marker-symbol": "star"},"properties": {"name": "sky","total": "130","info": "title: Santo Domingo de la Calzada - url: https://farm4.staticflickr.com/3351/5835457737_a6c456586d.jpg - best tag: sky - latitude: 42.440695 - longitude: -2.954185"},"geometry": {"type": "Point","coordinates":[-2.954185,42.440695]}},{"type": "Feature","style": {"marker-color": "#a52222","marker-size": "small","marker-symbol": "star"},"properties": {"name": "sky","total": "130","info": "title: Santo Domingo de la Calzada - url: https://farm6.staticflickr.com/5705/20216538764_1610de6411.jpg - best tag: sky - latitude: 42.440794 - longitude: -2.953484"},"geometry": {"type": "Point","coordinates":[-2.953484,42.440794]}},{"type": "Feature","style": {"marker-color": "#a52222","marker-size": "small","marker-symbol": "star"},"properties": {"name": "sky","total": "130","info": "title: Santo Domingo de la Calzada - url: https://farm8.staticflickr.com/7427/13584274504_408fcfcd9b.jpg - best tag: sky - latitude: 42.441747 - longitude: -2.960262"},"geometry": {"type": "Point","coordinates":[-2.960262,42.441747]}},{"type": "Feature","style": {"marker-color": "#a52222","marker-size": "small","marker-symbol": "star"},"properties": {"name": "sky","total": "130","info": "title: Banares - url: https://farm9.staticflickr.com/8090/8469055568_49f31ac8d3.jpg - best tag: sky - latitude: 42.468567 - longitude: -2.912224"},"geometry": {"type": "Point","coordinates":[-2.912224,42.468567]}},{"type": "Feature","style": {"marker-color": "#a52222","marker-size": "small","marker-symbol": "star"},"properties": {"name": "sky","total": "130","info": "title: Ciruena - url: https://farm9.staticflickr.com/8237/8383713810_f2a3ec7c23.jpg - best tag: sky - latitude: 42.414158 - longitude: -2.896571"},"geometry": {"type": "Point","coordinates":[-2.896571,42.414158]}},{"type": "Feature","style": {"marker-color": "#a52222","marker-size": "small","marker-symbol": "star"},"properties": {"name": "sky","total": "130","info": "title: Ciruena - url: https://farm8.staticflickr.com/7395/13582529065_4625e5686c.jpg - best tag: sky - latitude: 42.413880 - longitude: -2.896662"},"geometry": {"type": "Point","coordinates":[-2.896662,42.413880]}},{"type": "Feature","style": {"marker-color": "#a52222","marker-size": "small","marker-symbol": "star"},"properties": {"name": "sky","total": "130","info": "title: Santo Domingo de la Calzada - url: https://farm1.staticflickr.com/648/20652409749_84b95752fe.jpg - best tag: sky - latitude: 42.440347 - longitude: -2.952587"},"geometry": {"type": "Point","coordinates":[-2.952587,42.440347]}},{"type": "Feature","style": {"marker-color": "#a52222","marker-size": "small","marker-symbol": "star"},"properties": {"name": "sky","total": "130","info": "title: Ciruena - url: https://farm4.staticflickr.com/3707/13582377053_0d98c8c676.jpg - best tag: sky - latitude: 42.419613 - longitude: -2.884348"},"geometry": {"type": "Point","coordinates":[-2.884348,42.419613]}},{"type": "Feature","style": {"marker-color": "#a52222","marker-size": "small","marker-symbol": "star"},"properties": {"name": "sky","total": "130","info": "title: Ciruena - url: https://farm3.staticflickr.com/2920/13582832343_bfb419bba0.jpg - best tag: sky - latitude: 42.416202 - longitude: -2.905395"},"geometry": {"type": "Point","coordinates":[-2.905395,42.416202]}},{"type": "Feature","style": {"marker-color": "#a52222","marker-size": "small","marker-symbol": "star"},"properties": {"name": "sky","total": "130","info": "title: Ciruena - url: https://farm8.staticflickr.com/7246/7006070207_14862bb40d.jpg - best tag: sky - latitude: 42.417250 - longitude: -2.887502"},"geometry": {"type": "Point","coordinates":[-2.887502,42.417250]}},{"type": "Feature","style": {"marker-color": "#a52222","marker-size": "small","marker-symbol": "star"},"properties": {"name": "sky","total": "130","info": "title: Santo Domingo de la Calzada - url: https://farm3.staticflickr.com/2906/14073946728_46aaa1f67e.jpg - best tag: sky - latitude: 42.436943 - longitude: -2.955062"},"geometry": {"type": "Point","coordinates":[-2.955062,42.436943]}},{"type": "Feature","style": {"marker-color": "#a52222","marker-size": "small","marker-symbol": "star"},"properties": {"name": "sky","total": "130","info": "title: Santo Domingo de la Calzada - url: https://farm4.staticflickr.com/3786/12323976643_7429f3a11a.jpg - best tag: sky - latitude: 42.441796 - longitude: -2.956405"},"geometry": {"type": "Point","coordinates":[-2.956405,42.441796]}},{"type": "Feature","style": {"marker-color": "#a52222","marker-size": "small","marker-symbol": "star"},"properties": {"name": "sky","total": "130","info": "title: Santo Domingo de la Calzada - url: https://farm1.staticflickr.com/374/19572899722_acb66e57fa.jpg - best tag: sky - latitude: 42.441008 - longitude: -2.953820"},"geometry": {"type": "Point","coordinates":[-2.953820,42.441008]}},{"type": "Feature","style": {"marker-color": "#a52222","marker-size": "small","marker-symbol": "star"},"properties": {"name": "sky","total": "130","info": "title: Ciruena - url: https://farm8.staticflickr.com/7233/6859955550_057f1e87a7.jpg - best tag: sky - latitude: 42.414905 - longitude: -2.894908"},"geometry": {"type": "Point","coordinates":[-2.894908,42.414905]}},{"type": "Feature","style": {"marker-color": "#a52222","marker-size": "small","marker-symbol": "star"},"properties": {"name": "sky","total": "130","info": "title: Ciruena - url: https://farm9.staticflickr.com/8225/8382628539_42b1ca2e47.jpg - best tag: sky - latitude: 42.414158 - longitude: -2.896571"},"geometry": {"type": "Point","coordinates":[-2.896571,42.414158]}},{"type": "Feature","style": {"marker-color": "#a52222","marker-size": "small","marker-symbol": "star"},"properties": {"name": "sky","total": "130","info": "title: Santo Domingo de la Calzada - url: https://farm4.staticflickr.com/3673/11382623735_36a52ac817.jpg - best tag: sky - latitude: 42.442437 - longitude: -2.961652"},"geometry": {"type": "Point","coordinates":[-2.961652,42.442437]}},{"type": "Feature","style": {"marker-color": "#a52222","marker-size": "small","marker-symbol": "star"},"properties": {"name": "sky","total": "130","info": "title: Santo Domingo de la Calzada - url: https://farm8.staticflickr.com/7260/13583872965_29a24814b9.jpg - best tag: sky - latitude: 42.440997 - longitude: -2.954314"},"geometry": {"type": "Point","coordinates":[-2.954314,42.440997]}},{"type": "Feature","style": {"marker-color": "#a52222","marker-size": "small","marker-symbol": "star"},"properties": {"name": "sky","total": "130","info": "title: Santo Domingo de la Calzada - url: https://farm9.staticflickr.com/8457/7992079150_26ebf389d6.jpg - best tag: sky - latitude: 42.440847 - longitude: -2.953239"},"geometry": {"type": "Point","coordinates":[-2.953239,42.440847]}},{"type": "Feature","style": {"marker-color": "#a52222","marker-size": "small","marker-symbol": "star"},"properties": {"name": "sky","total": "130","info": "title: Santo Domingo de la Calzada - url: https://farm9.staticflickr.com/8796/18032097462_1c6b5703e5.jpg - best tag: sky - latitude: 42.428938 - longitude: -2.925970"},"geometry": {"type": "Point","coordinates":[-2.925970,42.428938]}},{"type": "Feature","style": {"marker-color": "#a52222","marker-size": "small","marker-symbol": "star"},"properties": {"name": "sky","total": "130","info": "title: Ciruena - url: https://farm8.staticflickr.com/7186/13582786974_28f6256189.jpg - best tag: sky - latitude: 42.418330 - longitude: -2.886128"},"geometry": {"type": "Point","coordinates":[-2.886128,42.418330]}},{"type": "Feature","style": {"marker-color": "#a52222","marker-size": "small","marker-symbol": "star"},"properties": {"name": "sky","total": "130","info": "title: Ciruena - url: https://farm8.staticflickr.com/7396/13582667524_93dbc95975.jpg - best tag: sky - latitude: 42.419613 - longitude: -2.884348"},"geometry": {"type": "Point","coordinates":[-2.884348,42.419613]}},{"type": "Feature","style": {"marker-color": "#a52222","marker-size": "small","marker-symbol": "star"},"properties": {"name": "sky","total": "130","info": "title: Ciruena - url: https://farm9.staticflickr.com/8215/8383711658_dfb4cf941a.jpg - best tag: sky - latitude: 42.414158 - longitude: -2.896571"},"geometry": {"type": "Point","coordinates":[-2.896571,42.414158]}},{"type": "Feature","style": {"marker-color": "#a52222","marker-size": "small","marker-symbol": "star"},"properties": {"name": "sky","total": "130","info": "title: Santo Domingo de la Calzada - url: https://farm6.staticflickr.com/5510/9618469442_fcfc44919f.jpg - best tag: sky - latitude: 42.441775 - longitude: -2.960100"},"geometry": {"type": "Point","coordinates":[-2.960100,42.441775]}},{"type": "Feature","style": {"marker-color": "#a52222","marker-size": "small","marker-symbol": "star"},"properties": {"name": "sky","total": "130","info": "title: Santo Domingo de la Calzada - url: https://farm3.staticflickr.com/2849/12322930044_e63622a7ea.jpg - best tag: sky - latitude: 42.441059 - longitude: -2.954603"},"geometry": {"type": "Point","coordinates":[-2.954603,42.441059]}},{"type": "Feature","style": {"marker-color": "#a52222","marker-size": "small","marker-symbol": "star"},"properties": {"name": "sky","total": "130","info": "title: Santo Domingo de la Calzada - url: https://farm7.staticflickr.com/6049/6332851176_fbc3482eb6.jpg - best tag: sky - latitude: 42.440716 - longitude: -2.954192"},"geometry": {"type": "Point","coordinates":[-2.954192,42.440716]}},{"type": "Feature","style": {"marker-color": "#a52222","marker-size": "small","marker-symbol": "star"},"properties": {"name": "sky","total": "130","info": "title: Santo Domingo de la Calzada - url: https://farm6.staticflickr.com/5065/13583923865_a5b1f802bb.jpg - best tag: sky - latitude: 42.442188 - longitude: -2.961514"},"geometry": {"type": "Point","coordinates":[-2.961514,42.442188]}},{"type": "Feature","style": {"marker-color": "#a52222","marker-size": "small","marker-symbol": "star"},"properties": {"name": "sky","total": "130","info": "title: Santo Domingo de la Calzada - url: https://farm1.staticflickr.com/682/21638270841_0346dc621e.jpg - best tag: sky - latitude: 42.440725 - longitude: -2.953347"},"geometry": {"type": "Point","coordinates":[-2.953347,42.440725]}},{"type": "Feature","style": {"marker-color": "#a52222","marker-size": "small","marker-symbol": "star"},"properties": {"name": "sky","total": "130","info": "title: Santo Domingo de la Calzada - url: https://farm3.staticflickr.com/2814/11123631865_5355ab1088.jpg - best tag: sky - latitude: 42.441547 - longitude: -2.959773"},"geometry": {"type": "Point","coordinates":[-2.959773,42.441547]}},{"type": "Feature","style": {"marker-color": "#a52222","marker-size": "small","marker-symbol": "star"},"properties": {"name": "sky","total": "130","info": "title: Santo Domingo de la Calzada - url: https://farm4.staticflickr.com/3698/9618473976_81080a397b.jpg - best tag: sky - latitude: 42.441788 - longitude: -2.960073"},"geometry": {"type": "Point","coordinates":[-2.960073,42.441788]}},{"type": "Feature","style": {"marker-color": "#a52222","marker-size": "small","marker-symbol": "star"},"properties": {"name": "sky","total": "130","info": "title: Santo Domingo de la Calzada - url: https://farm5.staticflickr.com/4058/4666146384_6f590d91d2.jpg - best tag: sky - latitude: 42.439721 - longitude: -2.957596"},"geometry": {"type": "Point","coordinates":[-2.957596,42.439721]}},{"type": "Feature","style": {"marker-color": "#a52222","marker-size": "small","marker-symbol": "star"},"properties": {"name": "sky","total": "130","info": "title: Santo Domingo de la Calzada - url: https://farm6.staticflickr.com/5058/5532264294_0492a06956.jpg - best tag: sky - latitude: 42.435493 - longitude: -2.938842"},"geometry": {"type": "Point","coordinates":[-2.938842,42.435493]}},{"type": "Feature","style": {"marker-color": "#a52222","marker-size": "small","marker-symbol": "star"},"properties": {"name": "sky","total": "130","info": "title: Santo Domingo de la Calzada - url: https://farm8.staticflickr.com/7312/11123566784_17e514e399.jpg - best tag: sky - latitude: 42.441483 - longitude: -2.953117"},"geometry": {"type": "Point","coordinates":[-2.953117,42.441483]}},{"type": "Feature","style": {"marker-color": "#a52222","marker-size": "small","marker-symbol": "star"},"properties": {"name": "sky","total": "130","info": "title: Santo Domingo de la Calzada - url: https://farm8.staticflickr.com/7305/9028073672_f488089cb3.jpg - best tag: sky - latitude: 42.441950 - longitude: -2.954392"},"geometry": {"type": "Point","coordinates":[-2.954392,42.441950]}},{"type": "Feature","style": {"marker-color": "#a52222","marker-size": "small","marker-symbol": "star"},"properties": {"name": "sky","total": "130","info": "title: Cirinuela - url: https://farm1.staticflickr.com/667/20651160188_dcc03737d8.jpg - best tag: sky - latitude: 42.422980 - longitude: -2.919189"},"geometry": {"type": "Point","coordinates":[-2.919189,42.422980]}},{"type": "Feature","style": {"marker-color": "#a52222","marker-size": "small","marker-symbol": "star"},"properties": {"name": "sky","total": "130","info": "title: Santo Domingo de la Calzada - url: https://farm8.staticflickr.com/7320/9624848899_7f0ec488f4.jpg - best tag: sky - latitude: 42.442005 - longitude: -2.954850"},"geometry": {"type": "Point","coordinates":[-2.954850,42.442005]}},{"type": "Feature","style": {"marker-color": "#a52222","marker-size": "small","marker-symbol": "star"},"properties": {"name": "sky","total": "130","info": "title: Santo Domingo de la Calzada - url: https://farm7.staticflickr.com/6041/6332099841_51ef49f741.jpg - best tag: sky - latitude: 42.440716 - longitude: -2.954192"},"geometry": {"type": "Point","coordinates":[-2.954192,42.440716]}},{"type": "Feature","style": {"marker-color": "#a52222","marker-size": "small","marker-symbol": "star"},"properties": {"name": "sky","total": "130","info": "title: Santo Domingo de la Calzada - url: https://farm9.staticflickr.com/8310/7972620170_bd95c5f1e0.jpg - best tag: sky - latitude: 42.440813 - longitude: -2.953619"},"geometry": {"type": "Point","coordinates":[-2.953619,42.440813]}},{"type": "Feature","style": {"marker-color": "#a52222","marker-size": "small","marker-symbol": "star"},"properties": {"name": "sky","total": "130","info": "title: San Torcuato - url: https://farm9.staticflickr.com/8582/15867604206_754bdd2cf4.jpg - best tag: sky - latitude: 42.482969 - longitude: -2.888760"},"geometry": {"type": "Point","coordinates":[-2.888760,42.482969]}},{"type": "Feature","style": {"marker-color": "#a52222","marker-size": "small","marker-symbol": "star"},"properties": {"name": "sky","total": "130","info": "title: Ciruena - url: https://farm4.staticflickr.com/3833/13582969523_f9375dd566.jpg - best tag: sky - latitude: 42.421125 - longitude: -2.915948"},"geometry": {"type": "Point","coordinates":[-2.915948,42.421125]}},{"type": "Feature","style": {"marker-color": "#a52222","marker-size": "small","marker-symbol": "star"},"properties": {"name": "sky","total": "130","info": "title: Santo Domingo de la Calzada - url: https://farm6.staticflickr.com/5788/21390689521_8f6db7db73.jpg - best tag: sky - latitude: 42.441012 - longitude: -2.953691"},"geometry": {"type": "Point","coordinates":[-2.953691,42.441012]}},{"type": "Feature","style": {"marker-color": "#a52222","marker-size": "small","marker-symbol": "star"},"properties": {"name": "sky","total": "130","info": "title: Santo Domingo de la Calzada - url: https://farm1.staticflickr.com/568/21193755068_28a9535724.jpg - best tag: sky - latitude: 42.441012 - longitude: -2.953691"},"geometry": {"type": "Point","coordinates":[-2.953691,42.441012]}},{"type": "Feature","style": {"marker-color": "#a52222","marker-size": "small","marker-symbol": "star"},"properties": {"name": "sky","total": "130","info": "title: Ciruena - url: https://farm7.staticflickr.com/6215/6859960330_ba10f5ebef.jpg - best tag: sky - latitude: 42.422080 - longitude: -2.917297"},"geometry": {"type": "Point","coordinates":[-2.917297,42.422080]}},{"type": "Feature","style": {"marker-color": "#a52222","marker-size": "small","marker-symbol": "star"},"properties": {"name": "sky","total": "130","info": "title: Santo Domingo de la Calzada - url: https://farm4.staticflickr.com/3684/9624841049_9c3c2f2f50.jpg - best tag: sky - latitude: 42.441075 - longitude: -2.953934"},"geometry": {"type": "Point","coordinates":[-2.953934,42.441075]}},{"type": "Feature","style": {"marker-color": "#a52222","marker-size": "small","marker-symbol": "star"},"properties": {"name": "sky","total": "130","info": "title: Banares - url: https://farm4.staticflickr.com/3810/9145955436_59690afe0a.jpg - best tag: sky - latitude: 42.453238 - longitude: -2.926067"},"geometry": {"type": "Point","coordinates":[-2.926067,42.453238]}},{"type": "Feature","style": {"marker-color": "#a52222","marker-size": "small","marker-symbol": "star"},"properties": {"name": "sky","total": "130","info": "title: Banares - url: https://farm9.staticflickr.com/8510/8467956799_dca55dd0a5.jpg - best tag: sky - latitude: 42.468567 - longitude: -2.912224"},"geometry": {"type": "Point","coordinates":[-2.912224,42.468567]}},{"type": "Feature","style": {"marker-color": "#a52222","marker-size": "small","marker-symbol": "star"},"properties": {"name": "sky","total": "130","info": "title: Ciruena - url: https://farm8.staticflickr.com/7389/13582834434_571c388bcc.jpg - best tag: sky - latitude: 42.416377 - longitude: -2.889042"},"geometry": {"type": "Point","coordinates":[-2.889042,42.416377]}},{"type": "Feature","style": {"marker-color": "#a52222","marker-size": "small","marker-symbol": "star"},"properties": {"name": "sky","total": "130","info": "title: Santo Domingo de la Calzada - url: https://farm4.staticflickr.com/3937/15432006759_0d5c1e83ea.jpg - best tag: sky - latitude: 42.441822 - longitude: -2.960381"},"geometry": {"type": "Point","coordinates":[-2.960381,42.441822]}},{"type": "Feature","style": {"marker-color": "#a52222","marker-size": "small","marker-symbol": "star"},"properties": {"name": "sky","total": "130","info": "title: Santo Domingo de la Calzada - url: https://farm5.staticflickr.com/4093/4908403397_cdda83b11e.jpg - best tag: sky - latitude: 42.429000 - longitude: -2.926000"},"geometry": {"type": "Point","coordinates":[-2.926000,42.429000]}},{"type": "Feature","style": {"marker-color": "#a52222","marker-size": "small","marker-symbol": "star"},"properties": {"name": "sky","total": "130","info": "title: Ciruena - url: https://farm9.staticflickr.com/8323/8382625931_3875c58844.jpg - best tag: sky - latitude: 42.414158 - longitude: -2.896571"},"geometry": {"type": "Point","coordinates":[-2.896571,42.414158]}},{"type": "Feature","style": {"marker-color": "#a52222","marker-size": "small","marker-symbol": "star"},"properties": {"name": "sky","total": "130","info": "title: Santo Domingo de la Calzada - url: https://farm8.staticflickr.com/7365/9320293183_45e567d65d.jpg - best tag: sky - latitude: 42.441079 - longitude: -2.953632"},"geometry": {"type": "Point","coordinates":[-2.953632,42.441079]}},{"type": "Feature","style": {"marker-color": "#a52222","marker-size": "small","marker-symbol": "star"},"properties": {"name": "sky","total": "130","info": "title: Manzanares de Rioja - url: https://farm8.staticflickr.com/7177/7017807583_ee2efc5697.jpg - best tag: sky - latitude: 42.410183 - longitude: -2.893589"},"geometry": {"type": "Point","coordinates":[-2.893589,42.410183]}},{"type": "Feature","style": {"marker-color": "#a52222","marker-size": "small","marker-symbol": "star"},"properties": {"name": "sky","total": "130","info": "title: Santo Domingo de la Calzada - url: https://farm1.staticflickr.com/595/21081387455_6ba32e56dd.jpg - best tag: sky - latitude: 42.441012 - longitude: -2.953691"},"geometry": {"type": "Point","coordinates":[-2.953691,42.441012]}},{"type": "Feature","style": {"marker-color": "#a52222","marker-size": "small","marker-symbol": "star"},"properties": {"name": "sky","total": "130","info": "title: Banares - url: https://farm8.staticflickr.com/7358/9558068250_cf00c8c388.jpg - best tag: sky - latitude: 42.467755 - longitude: -2.911412"},"geometry": {"type": "Point","coordinates":[-2.911412,42.467755]}},{"type": "Feature","style": {"marker-color": "#a52222","marker-size": "small","marker-symbol": "star"},"properties": {"name": "sky","total": "130","info": "title: Santo Domingo de la Calzada - url: https://farm6.staticflickr.com/5337/9464682581_d6efdec7ac.jpg - best tag: sky - latitude: 42.441724 - longitude: -2.953090"},"geometry": {"type": "Point","coordinates":[-2.953090,42.441724]}},{"type": "Feature","style": {"marker-color": "#a52222","marker-size": "small","marker-symbol": "star"},"properties": {"name": "sky","total": "130","info": "title: Ciruena - url: https://farm6.staticflickr.com/5469/9611528847_7d171e47db.jpg - best tag: sky - latitude: 42.421794 - longitude: -2.917109"},"geometry": {"type": "Point","coordinates":[-2.917109,42.421794]}},{"type": "Feature","style": {"marker-color": "#a52222","marker-size": "small","marker-symbol": "star"},"properties": {"name": "sky","total": "130","info": "title: Santo Domingo de la Calzada - url: https://farm6.staticflickr.com/5487/13583405484_62035bc562.jpg - best tag: sky - latitude: 42.434352 - longitude: -2.931975"},"geometry": {"type": "Point","coordinates":[-2.931975,42.434352]}}]}